$GNFCA,175219/40,0534.074063,N,02540.709036,W,1,12,0.7,61.0,M,-42.0,M,,*78





















$GNRMC,161219.00,A,0534.074063,N,02540.709036,W,0.0,,300620,8.4,W,A*0E

























$GPGSV,3,1,11,01,23,043,32,02,02,226,33,03,32,082,36,06,34,220,31*75



























$GPGSV,3,2,11,17,63,327,33,19,47,292,32,22,24,059,29,24,11,314,22*7F



























$GPGSV,3,3,11,28,77,120,29,30,15,191,25,11,00,000,*42










































$GLGSV,2,1,08,74,48,312,28,82,04,050,33,73,68,229,20,80,15,168,20*60



























$GLGSV,2,2,08,84,52,278,22,83,45,025,29,67,11,049,33,68,09,098,37*63



























$GAGSV,1,1,0,*74















































































$PQGSV,1,1,0,*73















































































$GBGSV,1,1,0,*77















































































$GNGSA,A,3,01,03,06,17,19,22,24,28,30,,,,1.0,0.7,0.7,1*35






































$GNGSA,A,3,67,68,73,74,80,82,83,84,,,,,1.0,0.7,0.7,2*3E








































$GNVTG,,T,,M,0.0,N,0.0,K,A*3D


































































$GNGGA,161220.00,0534.073775,N,02540.708821,W,1,12,0.7,61.0,M,-42.0,M,,*7A





















$GNRMC,161220.00,A,0534.073775,N,02540.708821,W,0.0,,300620,8.4,W,A*0C

























$GPGSV,3,1,11,01,23,043,29,02,02,226,33,03,32,082,32,06,34,220,28*73



























$GPGSV,3,2,11,17,63,327,30,19,47,292,28,22,24,059,27,24,11,314,20*7B



























$GPGSV,3,3,11,28,77,120,26,30,15,191,26,11,00,000,*4E










































$GLGSV,2,1,08,74,48,312,24,82,04,050,28,73,68,229,19,80,15,168,22*6E



























$GLGSV,2,2,08,84,52,278,18,83,45,025,24,67,11,049,30,68,09,098,35*66



























$GAGSV,1,1,0,*74















































































$PQGSV,1,1,0,*73















































































$GBGSV,1,1,0,*77















































































$GNGSA,A,3,01,03,06,17,19,22,24,28,30,,,,1.0,0.7,0.7,1*35






































$GNGSA,A,3,67,68,73,74,80,82,83,84,,,,,1.0,0.7,0.7,2*3E








































$GNVTG,,T,,M,0.0,N,0.0,K,A*3D


































































$GNGGA,161221.00,0534.073629,N,02540.708693,W,1,12,0.7,61.0,M,-42.0,M,,*74





















$GNRMC,161221.00,A,0534.073629,N,02540.708693,W,0.0,,300620,8.4,W,A*02

























$GPGSV,3,1,11,01,23,043,22,02,02,226,25,03,32,082,28,06,34,220,25*79



























$GPGSV,3,2,11,17,63,327,28,19,47,292,28,22,24,059,30,24,11,314,20*74



























$GPGSV,3,3,11,28,77,120,27,30,15,191,24,11,00,000,*4D










































$GLGSV,2,1,08,74,48,312,22,82,04,050,23,73,68,229,19,80,15,168,23*62



























$GLGSV,2,2,08,84,52,278,18,83,45,025,24,67,11,049,27,68,09,098,28*6C



























$GAGSV,1,1,0,*74















































































$PQGSV,1,1,0,*73















































































$GBGSV,1,1,0,*77















































































$GNGSA,A,3,01,03,06,17,19,22,24,28,30,,,,1.0,0.7,0.7,1*35






































$GNGSA,A,3,67,68,73,74,80,82,83,84,,,,,1.0,0.7,0.7,2*3E








































$GNVTG,,T,,M,0.0,N,0.0,K,A*3D


































































$GNGGA,161222.00,0534.073656,N,02540.708685,W,1,12,0.7,61.0,M,-42.0,M,,*78





















$GNRMC,161222.00,A,0534.073656,N,02540.708685,W,0.0,,300620,8.4,W,A*0E

























$GPGSV,3,1,11,01,23,043,33,02,02,226,20,03,32,082,31,06,34,220,20*71



























$GPGSV,3,2,11,17,63,327,21,19,47,292,16,22,24,059,30,24,11,314,16*75



























$GPGSV,3,3,11,28,77,120,30,30,15,191,22,11,00,000,*4D










































$GLGSV,2,1,08,74,48,312,18,82,04,050,28,73,68,229,18,80,15,168,19*68



























$GLGSV,2,2,08,84,52,278,18,83,45,025,16,67,11,049,37,68,09,098,32*67



























$GAGSV,1,1,0,*74















































































$PQGSV,1,1,0,*73















































































$GBGSV,1,1,0,*77















































































$GNGSA,A,3,01,03,06,17,19,22,24,28,30,,,,1.0,0.7,0.7,1*35






































$GNGSA,A,3,67,68,73,74,80,82,83,84,,,,,1.0,0.7,0.7,2*3E








































$GNVTG,263.2,T,263.2,M,0.4,N,0.8,K,A*31
























































$GNGGA,161223.00,0534.073717,N,02540.708848,W,1,12,0.7,60.0,M,-42.0,M,,*73





















$GNRMC,161223.00,A,0534.073717,N,02540.708848,W,0.4,263.2,300620,8.4,W,A*2B




















$GPGSV,3,1,11,01,23,043,26,02,02,226,17,03,32,082,26,06,34,220,19*7D



























$GPGSV,3,2,11,17,63,327,20,19,47,292,21,22,24,059,27,24,11,314,16*76



























$GPGSV,3,3,11,28,77,120,24,30,15,191,21,11,00,000,*4B










































$GLGSV,2,1,08,74,48,312,18,82,04,050,24,73,68,229,18,80,15,168,19*64



























$GLGSV,2,2,08,84,52,278,18,83,45,025,16,67,11,049,30,68,09,098,27*64



























$GAGSV,1,1,0,*74















































































$PQGSV,1,1,0,*73















































































$GBGSV,1,1,0,*77















































































$GNGSA,A,3,01,03,06,17,19,22,24,28,30,,,,1.0,0.7,0.7,1*35






































$GNGSA,A,3,67,68,73,74,80,82,83,84,,,,,1.0,0.7,0.7,2*3E








































$GNVTG,,T,,M,0.0,N,0.0,K,A*3D


































































$GNGGA,161224.00,0534.073793,N,02540.708865,W,1,12,0.7,61.0,M,-42.0,M,,*76





















$GNRMC,161224.00,A,0534.073793,N,02540.708865,W,0.0,,300620,8.4,W,A*00

























$GPGSV,3,1,11,01,23,043,21,02,02,226,19,03,32,082,26,06,34,220,19*74



























$GPGSV,3,2,11,17,63,327,22,19,47,292,19,22,24,059,28,24,11,314,16*70



























$GPGSV,3,3,11,28,77,120,21,30,15,191,27,11,00,000,*48










































$GLGSV,2,1,08,74,48,312,23,82,04,050,20,73,68,229,19,80,15,168,20*63



























$GLGSV,2,2,08,84,52,278,18,83,45,025,17,67,11,049,27,68,09,098,27*63



























$GAGSV,1,1,0,*74















































































$PQGSV,1,1,0,*73















































































$GBGSV,1,1,0,*77















































































$GNGSA,A,3,01,03,06,17,19,22,24,28,30,,,,1.0,0.7,0.7,1*35






































$GNGSA,A,3,67,68,73,74,80,82,83,84,,,,,1.0,0.7,0.7,2*3E








































$GNVTG,,T,,M,0.0,N,0.0,K,A*3D


































































$GNGGA,161225.00,0534.073887,N,02540.708850,W,1,12,0.7,61.0,M,-42.0,M,,*7B





















$GNRMC,161225.00,A,0534.073887,N,02540.708850,W,0.0,,300620,8.4,W,A*0D

























$GPGSV,3,1,11,01,23,043,21,02,02,226,18,03,32,082,27,06,34,220,21*7F



























$GPGSV,3,2,11,17,63,327,19,19,47,292,18,22,24,059,26,24,11,314,18*79



























$GPGSV,3,3,11,28,77,120,20,30,15,191,26,11,00,000,*48










































$GLGSV,2,1,08,74,48,312,27,82,04,050,18,73,68,229,19,80,15,168,21*6D



























$GLGSV,2,2,08,84,52,278,18,83,45,025,22,67,11,049,25,68,09,098,30*61



























$GAGSV,1,1,0,*74















































































$PQGSV,1,1,0,*73















































































$GBGSV,1,1,0,*77















































































$GNGSA,A,3,01,03,06,17,19,22,24,28,30,,,,1.0,0.7,0.7,1*35






































$GNGSA,A,3,67,68,73,74,80,82,83,84,,,,,1.0,0.7,0.7,2*3E








































$GNVTG,,T,,M,0.0,N,0.0,K,A*3D


































































$GNGGA,161226.00,0534.073993,N,02540.708978,W,1,12,0.7,60.0,M,-42.0,M,,*76





















$GNRMC,161226.00,A,0534.073993,N,02540.708978,W,0.0,,300620,8.4,W,A*01

























$GPGSV,3,1,11,01,23,043,18,02,02,226,18,03,32,082,23,06,34,220,22*72



























$GPGSV,3,2,11,17,63,327,20,19,47,292,18,22,24,059,26,24,11,314,18*73



























$GPGSV,3,3,11,28,77,120,25,30,15,191,27,11,00,000,*4C










































$GLGSV,2,1,08,74,48,312,25,82,04,050,18,73,68,229,20,80,15,168,24*60



























$GLGSV,2,2,08,84,52,278,18,83,45,025,16,67,11,049,28,68,09,098,28*62



























$GAGSV,1,1,0,*74















































































$PQGSV,1,1,0,*73















































































$GBGSV,1,1,0,*77















































































$GNGSA,A,3,01,03,06,17,19,22,24,28,30,,,,1.0,0.7,0.7,1*35






































$GNGSA,A,3,67,68,73,74,80,82,83,,,,,,1.0,0.7,0.7,2*32










































$GNVTG,,T,,M,0.0,N,0.0,K,A*3D


































































$GNGGA,161227.00,0534.074056,N,02540.709161,W,1,12,0.7,60.0,M,-42.0,M,,*71





















$GNRMC,161227.00,A,0534.074056,N,02540.709161,W,0.0,,300620,8.4,W,A*06

























$GPGSV,3,1,11,01,23,043,29,02,02,226,22,03,32,082,32,06,34,220,19*71



























$GPGSV,3,2,11,17,63,327,31,19,47,292,20,22,24,059,31,24,11,314,28*7D



























$GPGSV,3,3,11,28,77,120,29,30,15,191,30,11,00,000,*46










































$GLGSV,2,1,08,74,48,312,26,82,04,050,21,73,68,229,23,80,15,168,28*66



























$GLGSV,2,2,08,84,52,278,18,83,45,025,27,67,11,049,29,68,09,098,28*61



























$GAGSV,1,1,0,*74















































































$PQGSV,1,1,0,*73















































































$GBGSV,1,1,0,*77















































































$GNGSA,A,3,01,03,06,17,19,22,24,28,30,,,,1.0,0.7,0.7,1*35






































$GNGSA,A,3,67,68,73,74,80,82,83,,,,,,1.0,0.7,0.7,2*32










































$GNVTG,,T,,M,0.0,N,0.0,K,A*3D


































































$GNGGA,161228.00,0534.074153,N,02540.709220,W,1,12,0.7,59.0,M,-42.0,M,,*76





















$GNRMC,161228.00,A,0534.074153,N,02540.709220,W,0.0,,300620,8.4,W,A*0B

























$GPGSV,3,1,11,01,23,043,33,02,02,226,27,03,32,082,31,06,34,220,27*71



























$GPGSV,3,2,11,17,63,327,26,19,47,292,20,22,24,059,34,24,11,314,28*7E



























$GPGSV,3,3,11,28,77,120,27,30,15,191,25,11,00,000,*4C










































$GLGSV,2,1,08,74,48,312,25,82,04,050,26,73,68,229,22,80,15,168,25*6E



























$GLGSV,2,2,08,84,52,278,18,83,45,025,24,67,11,049,34,68,09,098,31*66



























$GAGSV,1,1,0,*74















































































$PQGSV,1,1,0,*73















































































$GBGSV,1,1,0,*77















































































$GNGSA,A,3,01,03,06,17,19,22,24,28,30,,,,1.0,0.7,0.7,1*35






































$GNGSA,A,3,67,68,73,74,80,82,83,,,,,,1.0,0.7,0.7,2*32










































$GNVTG,,T,,M,0.0,N,0.0,K,A*3D


































































$GNGGA,161229.00,0534.074223,N,02540.709185,W,1,12,0.7,59.0,M,-42.0,M,,*7F





















$GNRMC,161229.00,A,0534.074223,N,02540.709185,W,0.0,,300620,8.4,W,A*02

























$GPGSV,3,1,11,01,23,043,35,02,02,226,33,03,32,082,34,06,34,220,35*74



























$GPGSV,3,2,11,17,63,327,32,19,47,292,25,22,24,059,36,24,11,314,33*76



























$GPGSV,3,3,11,28,77,120,31,30,15,191,34,11,00,000,*4B










































$GLGSV,2,1,08,74,48,312,25,82,04,050,28,73,68,229,28,80,15,168,27*68



























$GLGSV,2,2,08,84,52,278,18,83,45,025,25,67,11,049,38,68,09,098,35*6F



























$GAGSV,1,1,0,*74















































































$PQGSV,1,1,0,*73















































































$GBGSV,1,1,0,*77















































































$GNGSA,A,3,01,03,06,17,19,22,24,28,30,,,,1.0,0.7,0.7,1*35






































$GNGSA,A,3,67,68,73,74,80,82,83,,,,,,1.0,0.7,0.7,2*32










































$GNVTG,309.7,T,309.7,M,0.3,N,0.5,K,A*3B
























































$GNGGA,161230.00,0534.074356,N,02540.709181,W,1,12,0.7,60.0,M,-42.0,M,,*7A





















$GNRMC,161230.00,A,0534.074356,N,02540.709181,W,0.3,309.7,300620,8.4,W,A*2D




















$GPGSV,3,1,11,01,23,043,30,02,02,226,33,03,32,082,32,06,34,220,26*75



























$GPGSV,3,2,11,17,63,327,33,19,47,292,33,22,24,059,33,24,11,314,30*76



























$GPGSV,3,3,11,28,77,120,31,30,15,191,37,11,00,000,*48










































$GLGSV,2,1,08,74,48,312,27,82,04,050,35,73,68,229,25,80,15,168,29*65



























$GLGSV,2,2,08,84,52,278,18,83,45,025,24,67,11,049,35,68,09,098,31*67



























$GAGSV,1,1,0,*74















































































$PQGSV,1,1,0,*73















































































$GBGSV,1,1,0,*77















































































$GNGSA,A,3,01,03,06,17,19,22,24,28,30,,,,1.0,0.7,0.7,1*35






































$GNGSA,A,3,67,68,73,74,80,82,83,,,,,,1.0,0.7,0.7,2*32










































$GNVTG,16.8,T,16.8,M,0.4,N,0.8,K,A*31


























































$GNGGA,161231.00,0534.074404,N,02540.708981,W,1,12,0.7,61.0,M,-42.0,M,,*73





















$GNRMC,161231.00,A,0534.074404,N,02540.708981,W,0.4,16.8,300620,8.4,W,A*10





















$GPGSV,3,1,11,01,23,043,33,02,02,226,30,03,32,082,33,06,34,220,30*73



























$GPGSV,3,2,11,17,63,327,32,19,47,292,34,22,24,059,32,24,11,314,29*79



























$GPGSV,3,3,11,28,77,120,32,30,15,191,37,11,00,000,*4B










































$GLGSV,2,1,08,74,48,312,29,82,04,050,33,73,68,229,28,80,15,168,30*68



























$GLGSV,2,2,08,84,52,278,18,83,45,025,24,67,11,049,35,68,09,098,34*62



























$GAGSV,1,1,0,*74















































































$PQGSV,1,1,0,*73















































































$GBGSV,1,1,0,*77















































































$GNGSA,A,3,01,03,06,17,19,22,24,28,30,,,,1.0,0.7,0.7,1*35






































$GNGSA,A,3,67,68,73,74,80,82,83,,,,,,1.0,0.7,0.7,2*32










































$GNVTG,60.4,T,60.4,M,2.2,N,4.1,K,A*38


























































$GNGGA,161232.00,0534.074577,N,02540.708363,W,1,12,0.7,60.0,M,-42.0,M,,*72





















$GNRMC,161232.00,A,0534.074577,N,02540.708363,W,2.2,60.4,300620,8.4,W,A*19





















$GPGSV,3,1,11,01,23,043,31,02,02,226,36,03,32,082,32,06,34,220,35*73



























$GPGSV,3,2,11,17,63,327,35,19,47,292,31,22,24,059,33,24,11,314,31*73



























$GPGSV,3,3,11,28,77,120,32,30,15,191,36,11,00,000,*4A










































$GLGSV,2,1,08,74,48,312,29,82,04,050,31,73,68,229,32,80,15,168,29*69



























$GLGSV,2,2,08,84,52,278,18,83,45,025,26,67,11,049,32,68,09,098,30*63



























$GAGSV,1,1,0,*74















































































$PQGSV,1,1,0,*73















































































$GBGSV,1,1,0,*77















































































$GNGSA,A,3,01,03,06,17,19,22,24,28,30,,,,1.0,0.7,0.7,1*35






































$GNGSA,A,3,67,68,73,74,80,82,83,,,,,,1.0,0.7,0.7,2*32










































$GNVTG,75.6,T,75.6,M,3.5,N,6.4,K,A*39


























































$GNGGA,161233.00,0534.074726,N,02540.707114,W,1,12,0.7,60.0,M,-42.0,M,,*78





















$GNRMC,161233.00,A,0534.074726,N,02540.707114,W,3.5,75.6,300620,8.4,W,A*13





















$GPGSV,3,1,11,01,23,043,35,02,02,226,21,03,32,082,30,06,34,220,32*74



























$GPGSV,3,2,11,17,63,327,33,19,47,292,37,22,24,059,37,24,11,314,30*76



























$GPGSV,3,3,11,28,77,120,29,30,15,191,32,11,00,000,*44










































$GLGSV,2,1,08,74,48,312,33,82,04,050,27,73,68,229,26,80,15,168,25*6C



























$GLGSV,2,2,08,84,52,278,24,83,45,025,22,67,11,049,33,68,09,098,24*6C



























$GAGSV,1,1,0,*74















































































$PQGSV,1,1,0,*73















































































$GBGSV,1,1,0,*77















































































$GNGSA,A,3,01,03,06,17,19,22,24,28,30,,,,1.0,0.7,0.7,1*35






































$GNGSA,A,3,67,68,73,74,80,82,83,,,,,,1.0,0.7,0.7,2*32










































$GNVTG,,T,,M,0.0,N,0.0,K,A*3D


































































$GNGGA,161234.00,0534.074712,N,02540.706359,W,1,12,0.7,59.0,M,-42.0,M,,*78





















$GNRMC,161234.00,A,0534.074712,N,02540.706359,W,0.0,,300620,8.4,W,A*05

























$GPGSV,3,1,11,01,23,043,36,02,02,226,18,03,32,082,28,06,34,220,29*7E



























$GPGSV,3,2,11,17,63,327,33,19,47,292,38,22,24,059,37,24,11,314,22*7A



























$GPGSV,3,3,11,28,77,120,30,30,15,191,34,11,00,000,*4A










































$GLGSV,2,1,08,74,48,312,34,82,04,050,26,73,68,229,26,80,15,168,26*69



























$GLGSV,2,2,08,84,52,278,24,83,45,025,23,67,11,049,33,68,09,098,22*6B



























$GAGSV,1,1,0,*74















































































$PQGSV,1,1,0,*73















































































$GBGSV,1,1,0,*77















































































$GNGSA,A,3,01,03,06,17,19,22,24,28,30,,,,1.0,0.7,0.7,1*35






































$GNGSA,A,3,67,68,73,74,80,82,83,84,,,,,1.0,0.7,0.7,2*3E








































$GNVTG,,T,,M,0.0,N,0.0,K,A*3D


































































$GNGGA,161235.00,0534.074462,N,02540.705964,W,1,12,0.7,58.0,M,-42.0,M,,*7B





















$GNRMC,161235.00,A,0534.074462,N,02540.705964,W,0.0,,300620,8.4,W,A*07

























$GPGSV,3,1,11,01,23,043,35,02,02,226,22,03,32,082,29,06,34,220,29*75



























$GPGSV,3,2,11,17,63,327,33,19,47,292,37,22,24,059,37,24,11,314,22*75



























$GPGSV,3,3,11,28,77,120,30,30,15,191,34,11,00,000,*4A










































$GLGSV,2,1,08,74,48,312,34,82,04,050,26,73,68,229,27,80,15,168,27*69



























$GLGSV,2,2,08,84,52,278,24,83,45,025,22,67,11,049,32,68,09,098,23*6A



























$GAGSV,1,1,0,*74















































































$PQGSV,1,1,0,*73















































































$GBGSV,1,1,0,*77















































































$GNGSA,A,3,01,03,06,17,19,22,24,28,30,,,,1.0,0.7,0.7,1*35






































$GNGSA,A,3,67,68,73,74,80,82,83,84,,,,,1.0,0.7,0.7,2*3E








































$GNVTG,,T,,M,0.0,N,0.0,K,A*3D


































































$GNGGA,161236.00,0534.074273,N,02540.705787,W,1,12,0.7,58.0,M,-42.0,M,,*7D





















$GNRMC,161236.00,A,0534.074273,N,02540.705787,W,0.0,,300620,8.4,W,A*01

























$GPGSV,3,1,11,01,23,043,34,02,02,226,20,03,32,082,28,06,34,220,28*76



























$GPGSV,3,2,11,17,63,327,32,19,47,292,37,22,24,059,37,24,11,314,18*7D



























$GPGSV,3,3,11,28,77,120,29,30,15,191,33,11,00,000,*45










































$GLGSV,2,1,08,74,48,312,33,82,04,050,25,73,68,229,27,80,15,168,27*6D



























$GLGSV,2,2,08,84,52,278,23,83,45,025,23,67,11,049,33,68,09,098,20*6E



























$GAGSV,1,1,0,*74















































































$PQGSV,1,1,0,*73















































































$GBGSV,1,1,0,*77















































































$GNGSA,A,3,01,03,06,17,19,22,24,28,30,,,,1.0,0.7,0.7,1*35






































$GNGSA,A,3,67,68,73,74,80,82,83,84,,,,,1.0,0.7,0.7,2*3E








































$GNVTG,,T,,M,0.0,N,0.0,K,A*3D


































































$GNGGA,161237.00,0534.074220,N,02540.705734,W,1,12,0.7,58.0,M,-42.0,M,,*72





















$GNRMC,161237.00,A,0534.074220,N,02540.705734,W,0.0,,300620,8.4,W,A*0E

























$GPGSV,3,1,11,01,23,043,35,02,02,226,21,03,32,082,28,06,34,220,27*79



























$GPGSV,3,2,11,17,63,327,33,19,47,292,38,22,24,059,38,24,11,314,18*7C



























$GPGSV,3,3,11,28,77,120,30,30,15,191,33,11,00,000,*4D










































$GLGSV,2,1,08,74,48,312,34,82,04,050,26,73,68,229,28,80,15,168,27*66



























$GLGSV,2,2,08,84,52,278,24,83,45,025,22,67,11,049,33,68,09,098,22*6A



























$GAGSV,1,1,0,*74















































































$PQGSV,1,1,0,*73















































































$GBGSV,1,1,0,*77















































































$GNGSA,A,3,01,03,06,17,19,22,24,28,30,,,,1.0,0.7,0.7,1*35






































$GNGSA,A,3,67,68,73,74,80,82,83,84,,,,,1.0,0.7,0.7,2*3E








































$GNVTG,,T,,M,0.0,N,0.0,K,A*3D


































































$GNGGA,161238.00,0534.074167,N,02540.705630,W,1,12,0.7,58.0,M,-42.0,M,,*78





















$GNRMC,161238.00,A,0534.074167,N,02540.705630,W,0.0,,300620,8.4,W,A*04

























$GPGSV,3,1,11,01,23,043,35,02,02,226,22,03,32,082,28,06,34,220,25*78



























$GPGSV,3,2,11,17,63,327,34,19,47,292,38,22,24,059,38,28,77,120,29*70



























$GPGSV,3,3,11,30,15,191,33,11,00,000,,24,11,314,*47












































$GLGSV,2,1,08,74,48,312,35,82,04,050,27,73,68,229,30,80,15,168,26*6E



























$GLGSV,2,2,08,84,52,278,25,83,45,025,22,67,11,049,34,68,09,098,20*6E



























$GAGSV,1,1,0,*74















































































$PQGSV,1,1,0,*73















































































$GBGSV,1,1,0,*77















































































$GNGSA,A,3,01,03,06,17,19,22,24,28,30,,,,1.0,0.7,0.7,1*35






































$GNGSA,A,3,67,68,73,74,80,82,83,84,,,,,1.0,0.7,0.7,2*3E








































$GNVTG,,T,,M,0.0,N,0.0,K,A*3D


































































$GNGGA,161239.00,0534.074164,N,02540.705559,W,1,12,0.7,57.0,M,-42.0,M,,*79





















$GNRMC,161239.00,A,0534.074164,N,02540.705559,W,0.0,,300620,8.4,W,A*0A

























$GPGSV,3,1,11,01,23,043,35,02,02,226,20,03,32,082,28,06,34,220,25*7A



























$GPGSV,3,2,11,17,63,327,34,19,47,292,37,22,24,059,37,24,11,314,20*70



























$GPGSV,3,3,11,28,77,120,28,30,15,191,33,11,00,000,*44










































$GLGSV,2,1,08,74,48,312,34,82,04,050,25,73,68,229,30,80,15,168,27*6C



























$GLGSV,2,2,08,84,52,278,26,83,45,025,21,67,11,049,33,68,09,098,21*68



























$GAGSV,1,1,0,*74















































































$PQGSV,1,1,0,*73















































































$GBGSV,1,1,0,*77















































































$GNGSA,A,3,01,03,06,17,19,22,24,28,30,,,,1.0,0.7,0.7,1*35






































$GNGSA,A,3,67,68,73,74,80,82,83,84,,,,,1.0,0.7,0.7,2*3E








































$GNVTG,,T,,M,0.0,N,0.0,K,A*3D


































































$GNGGA,161240.00,0534.074111,N,02540.705471,W,1,12,0.7,57.0,M,-42.0,M,,*7E





















$GNRMC,161240.00,A,0534.074111,N,02540.705471,W,0.0,,300620,8.4,W,A*0D

























$GPGSV,3,1,11,01,23,043,35,02,02,226,21,03,32,082,27,06,34,220,26*77



























$GPGSV,3,2,11,17,63,327,34,19,47,292,38,22,24,059,37,24,11,314,20*7F



























$GPGSV,3,3,11,28,77,120,29,30,15,191,34,11,00,000,*42










































$GLGSV,2,1,08,74,48,312,34,82,04,050,26,73,68,229,29,80,15,168,26*66



























$GLGSV,2,2,08,84,52,278,25,83,45,025,21,67,11,049,33,68,09,098,23*69



























$GAGSV,1,1,0,*74















































































$PQGSV,1,1,0,*73















































































$GBGSV,1,1,0,*77















































































$GNGSA,A,3,01,03,06,17,19,22,24,28,30,,,,1.0,0.7,0.7,1*35






































$GNGSA,A,3,67,68,73,74,80,82,83,84,,,,,1.0,0.7,0.7,2*3E








































$GNVTG,,T,,M,0.0,N,0.0,K,A*3D


































































$GNGGA,161241.00,0534.074107,N,02540.705398,W,1,12,0.7,57.0,M,-42.0,M,,*78





















$GNRMC,161241.00,A,0534.074107,N,02540.705398,W,0.0,,300620,8.4,W,A*0B

























$GPGSV,3,1,11,01,23,043,36,02,02,226,21,03,32,082,27,06,34,220,27*75



























$GPGSV,3,2,11,17,63,327,33,19,47,292,38,22,24,059,38,24,11,314,20*77



























$GPGSV,3,3,11,28,77,120,30,30,15,191,34,11,00,000,*4A










































$GLGSV,2,1,08,74,48,312,35,82,04,050,25,73,68,229,28,80,15,168,27*64



























$GLGSV,2,2,08,84,52,278,23,83,45,025,21,67,11,049,33,68,09,098,23*6F



























$GAGSV,1,1,0,*74















































































$PQGSV,1,1,0,*73















































































$GBGSV,1,1,0,*77















































































$GNGSA,A,3,01,03,06,17,19,22,24,28,30,,,,1.0,0.7,0.7,1*35






































$GNGSA,A,3,67,68,73,74,80,82,83,84,,,,,1.0,0.7,0.7,2*3E








































$GNVTG,,T,,M,0.0,N,0.0,K,A*3D


































































$GNGGA,161242.00,0534.074066,N,02540.705341,W,1,12,0.7,57.0,M,-42.0,M,,*79





















$GNRMC,161242.00,A,0534.074066,N,02540.705341,W,0.0,,300620,8.4,W,A*0A

























$GPGSV,3,1,11,01,23,043,36,02,02,226,20,03,32,082,29,06,34,220,27*7A



























$GPGSV,3,2,11,17,63,327,32,19,47,292,38,22,24,059,37,24,11,314,19*73



























$GPGSV,3,3,11,28,77,120,29,30,15,191,33,11,00,000,*45










































$GLGSV,2,1,08,74,48,312,34,82,04,050,28,73,68,229,28,80,15,168,28*67



























$GLGSV,2,2,08,84,52,278,23,83,45,025,21,67,11,049,33,68,09,098,20*6C



























$GAGSV,1,1,0,*74















































































$PQGSV,1,1,0,*73















































































$GBGSV,1,1,0,*77















































































$GNGSA,A,3,01,03,06,17,19,22,24,28,30,,,,1.0,0.7,0.7,1*35






































$GNGSA,A,3,67,68,73,74,80,82,83,84,,,,,1.0,0.7,0.7,2*3E








































$GNVTG,,T,,M,0.0,N,0.0,K,A*3D


































































$GNGGA,161243.00,0534.074026,N,02540.705319,W,1,12,0.7,57.0,M,-42.0,M,,*71





















$GNRMC,161243.00,A,0534.074026,N,02540.705319,W,0.0,,300620,8.4,W,A*02

























$GPGSV,3,1,11,01,23,043,35,02,02,226,23,03,32,082,29,06,34,220,33*7F



























$GPGSV,3,2,11,17,63,327,33,19,47,292,39,22,24,059,37,24,11,314,18*72



























$GPGSV,3,3,11,28,77,120,29,30,15,191,34,11,00,000,*42










































$GLGSV,2,1,08,74,48,312,34,82,04,050,26,73,68,229,30,80,15,168,25*6D



























$GLGSV,2,2,08,84,52,278,24,83,45,025,21,67,11,049,34,68,09,098,20*6C



























$GAGSV,1,1,0,*74















































































$PQGSV,1,1,0,*73















































































$GBGSV,1,1,0,*77















































































$GNGSA,A,3,01,03,06,17,19,22,24,28,30,,,,1.0,0.7,0.7,1*35






































$GNGSA,A,3,67,68,73,74,80,83,84,,,,,,1.0,0.7,0.7,2*34










































$GNVTG,,T,,M,0.0,N,0.0,K,A*3D


































































$GNGGA,161244.00,0534.073941,N,02540.705245,W,1,12,0.7,57.0,M,-42.0,M,,*71





















$GNRMC,161244.00,A,0534.073941,N,02540.705245,W,0.0,,300620,8.4,W,A*02

























$GPGSV,3,1,11,01,23,043,35,02,02,226,19,03,32,082,29,06,34,220,36*73



























$GPGSV,3,2,11,17,63,327,33,19,47,292,39,22,24,059,37,28,77,120,28*78



























$GPGSV,3,3,11,30,15,191,34,11,00,000,,24,11,314,*40












































$GLGSV,2,1,08,74,48,312,34,82,04,050,28,73,68,229,33,80,15,168,25*60



























$GLGSV,2,2,08,84,52,278,23,83,45,025,22,67,11,049,34,68,09,098,20*68



























$GAGSV,1,1,0,*74















































































$PQGSV,1,1,0,*73















































































$GBGSV,1,1,0,*77















































































$GNGSA,A,3,01,03,06,17,19,22,24,28,30,,,,1.0,0.7,0.7,1*35






































$GNGSA,A,3,67,68,73,74,80,83,84,,,,,,1.0,0.7,0.7,2*34










































$GNVTG,,T,,M,0.0,N,0.0,K,A*3D


































































$GNGGA,161245.00,0534.073909,N,02540.705188,W,1,12,0.7,57.0,M,-42.0,M,,*7E





















$GNRMC,161245.00,A,0534.073909,N,02540.705188,W,0.0,,300620,8.4,W,A*0D

























$GPGSV,3,1,11,01,23,043,35,02,02,226,22,03,32,082,28,06,34,220,38*74



























$GPGSV,3,2,11,17,63,327,33,19,47,292,38,22,24,059,36,28,77,120,28*78



























$GPGSV,3,3,11,30,15,191,34,11,00,000,,24,11,314,*40












































$GLGSV,2,1,08,74,48,312,34,82,04,050,27,73,68,229,33,80,15,168,23*69



























$GLGSV,2,2,08,84,52,278,24,83,45,025,21,67,11,049,33,68,09,098,17*6F



























$GAGSV,1,1,0,*74















































































$PQGSV,1,1,0,*73















































































$GBGSV,1,1,0,*77















































































$GNGSA,A,3,01,03,06,17,19,22,24,28,30,,,,1.0,0.7,0.7,1*35






































$GNGSA,A,3,67,68,73,74,80,83,84,,,,,,1.0,0.7,0.7,2*34










































$GNVTG,,T,,M,0.0,N,0.0,K,A*3D


































































$GNGGA,161246.00,0534.073896,N,02540.705146,W,1,12,0.7,57.0,M,-42.0,M,,*78





















$GNRMC,161246.00,A,0534.073896,N,02540.705146,W,0.0,,300620,8.4,W,A*0B

























$GPGSV,3,1,11,01,23,043,35,02,02,226,22,03,32,082,28,06,34,220,38*74



























$GPGSV,3,2,11,17,63,327,34,19,47,292,38,22,24,059,36,28,77,120,29*7E



























$GPGSV,3,3,11,30,15,191,34,11,00,000,,24,11,314,*40












































$GLGSV,2,1,08,74,48,312,34,82,04,050,26,73,68,229,32,80,15,168,23*69



























$GLGSV,2,2,08,84,52,278,25,83,45,025,21,67,11,049,33,68,09,098,18*61



























$GAGSV,1,1,0,*74















































































$PQGSV,1,1,0,*73















































































$GBGSV,1,1,0,*77















































































$GNGSA,A,3,01,03,06,17,19,22,24,28,30,,,,1.1,0.8,0.8,1*34






































$GNGSA,A,3,67,68,73,74,80,83,84,,,,,,1.1,0.8,0.8,2*35










































$GNVTG,,T,,M,0.0,N,0.0,K,A*3D


































































$GNGGA,161247.00,0534.073873,N,02540.705114,W,1,12,0.8,57.0,M,-42.0,M,,*7A





















$GNRMC,161247.00,A,0534.073873,N,02540.705114,W,0.0,,300620,8.4,W,A*06

























$GPGSV,3,1,11,01,23,043,34,02,02,226,23,03,32,082,27,06,34,220,38*7B



























$GPGSV,3,2,11,17,63,327,33,19,47,292,37,22,24,059,36,28,77,120,28*77



























$GPGSV,3,3,11,30,15,191,34,11,00,000,,24,11,314,*40












































$GLGSV,2,1,08,74,48,312,33,82,04,050,27,73,68,229,32,80,15,168,22*6E



























$GLGSV,2,2,08,84,52,278,25,83,45,025,21,67,11,049,33,68,09,098,20*6A



























$GAGSV,1,1,0,*74















































































$PQGSV,1,1,0,*73















































































$GBGSV,1,1,0,*77















































































$GNGSA,A,3,01,03,06,17,19,22,28,30,,,,,1.2,0.8,0.8,1*31








































$GNGSA,A,3,67,68,73,74,80,83,84,,,,,,1.2,0.8,0.8,2*36










































$GNVTG,,T,,M,0.0,N,0.0,K,A*3D


































































$GNGGA,161248.00,0534.073858,N,02540.705112,W,1,12,0.8,57.0,M,-42.0,M,,*7A





















$GNRMC,161248.00,A,0534.073858,N,02540.705112,W,0.0,,300620,8.4,W,A*06

























$GPGSV,3,1,11,01,23,043,35,02,02,226,23,03,32,082,28,06,34,220,38*75



























$GPGSV,3,2,11,17,63,327,32,19,47,292,37,22,24,059,36,28,77,120,29*77



























$GPGSV,3,3,11,30,15,191,34,11,00,000,,24,11,314,*40












































$GLGSV,2,1,08,74,48,312,32,82,04,050,26,73,68,229,33,80,15,168,22*6F



























$GLGSV,2,2,08,84,52,278,25,83,45,025,20,67,11,049,33,68,09,098,19*61



























$GAGSV,1,1,0,*74















































































$PQGSV,1,1,0,*73















































































$GBGSV,1,1,0,*77















































































$GNGSA,A,3,01,03,06,17,19,22,28,30,,,,,1.2,0.8,0.8,1*31








































$GNGSA,A,3,67,73,74,80,83,84,,,,,,,1.2,0.8,0.8,2*38












































$GNVTG,,T,,M,0.0,N,0.0,K,A*3D


































































$GNGGA,161249.00,0534.073854,N,02540.705122,W,1,12,0.8,57.0,M,-42.0,M,,*74





















$GNRMC,161249.00,A,0534.073854,N,02540.705122,W,0.0,,300620,8.4,W,A*08

























$GPGSV,3,1,11,01,23,043,35,02,02,226,23,03,32,082,28,06,34,220,38*75



























$GPGSV,3,2,11,17,63,327,33,19,47,292,38,22,24,059,37,28,77,120,29*78



























$GPGSV,3,3,11,30,15,191,34,11,00,000,,24,11,314,*40












































$GLGSV,2,1,08,74,48,312,34,82,04,050,26,73,68,229,31,80,15,168,23*6A



























$GLGSV,2,2,08,84,52,278,24,83,45,025,21,67,11,049,34,68,09,098,21*6D



























$GAGSV,1,1,0,*74















































































$PQGSV,1,1,0,*73















































































$GBGSV,1,1,0,*77















































































$GNGSA,A,3,01,03,06,17,19,22,28,30,,,,,1.1,0.8,0.8,1*32








































$GNGSA,A,3,67,73,74,80,83,84,,,,,,,1.1,0.8,0.8,2*3B












































$GNVTG,,T,,M,0.0,N,0.0,K,A*3D


































































$GNGGA,161250.00,0534.073852,N,02540.705127,W,1,12,0.8,57.0,M,-42.0,M,,*7F





















$GNRMC,161250.00,A,0534.073852,N,02540.705127,W,0.0,,300620,8.4,W,A*03

























$GPGSV,3,1,11,01,23,043,35,02,02,226,23,03,32,082,29,06,34,220,37*7B



























$GPGSV,3,2,11,17,63,327,34,19,47,292,38,22,24,059,37,28,77,120,29*7F



























$GPGSV,3,3,11,30,15,191,34,11,00,000,,24,11,314,*40












































$GLGSV,2,1,08,74,48,312,34,82,04,050,27,73,68,229,32,80,15,168,23*68



























$GLGSV,2,2,08,84,52,278,25,83,45,025,22,67,11,049,34,68,09,098,23*6D



























$GAGSV,1,1,0,*74















































































$PQGSV,1,1,0,*73















































































$GBGSV,1,1,0,*77















































































$GNGSA,A,3,01,03,06,17,19,22,28,30,,,,,1.1,0.8,0.8,1*32








































$GNGSA,A,3,67,68,73,74,80,83,84,,,,,,1.1,0.8,0.8,2*35










































$GNVTG,,T,,M,0.0,N,0.0,K,A*3D


































































$GNGGA,161251.00,0534.073849,N,02540.705129,W,1,12,0.8,57.0,M,-42.0,M,,*7A





















$GNRMC,161251.00,A,0534.073849,N,02540.705129,W,0.0,,300620,8.4,W,A*06

























$GPGSV,3,1,11,01,23,043,35,02,02,226,23,03,32,082,29,06,34,220,37*7B



























$GPGSV,3,2,11,17,63,327,33,19,47,292,39,22,24,059,37,28,77,120,29*79



























$GPGSV,3,3,11,30,15,191,34,11,00,000,,24,11,314,*40












































$GLGSV,2,1,08,74,48,312,34,82,04,050,27,73,68,229,31,80,15,168,23*6B



























$GLGSV,2,2,08,84,52,278,26,83,45,025,21,67,11,049,34,68,09,098,23*6D



























$GAGSV,1,1,0,*74















































































$PQGSV,1,1,0,*73















































































$GBGSV,1,1,0,*77















































































$GNGSA,A,3,01,03,06,17,19,22,28,30,,,,,1.1,0.8,0.8,1*32








































$GNGSA,A,3,67,68,73,74,80,83,84,,,,,,1.1,0.8,0.8,2*35










































$GNVTG,,T,,M,0.0,N,0.0,K,A*3D


































































$GNGGA,161252.00,0534.073848,N,02540.705131,W,1,12,0.8,57.0,M,-42.0,M,,*71





















$GNRMC,161252.00,A,0534.073848,N,02540.705131,W,0.0,,300620,8.4,W,A*0D

























$GPGSV,3,1,11,01,23,043,35,02,02,226,21,03,32,082,27,06,34,220,37*77



























$GPGSV,3,2,11,17,63,327,33,19,47,292,38,22,24,059,37,28,77,120,28*79



























$GPGSV,3,3,11,30,15,191,34,11,00,000,,24,11,314,*40












































$GLGSV,2,1,08,74,48,312,34,82,04,050,27,73,68,229,32,80,15,168,23*68



























$GLGSV,2,2,08,84,52,278,25,83,45,025,22,67,11,049,33,68,09,098,24*6D



























$GAGSV,1,1,0,*74















































































$PQGSV,1,1,0,*73















































































$GBGSV,1,1,0,*77















































































$GNGSA,A,3,01,03,06,17,19,22,28,30,,,,,1.1,0.8,0.8,1*32








































$GNGSA,A,3,67,68,73,74,80,83,84,,,,,,1.1,0.8,0.8,2*35










































$GNVTG,,T,,M,0.0,N,0.0,K,A*3D


































































$GNGGA,161253.00,0534.073847,N,02540.705132,W,1,12,0.8,57.0,M,-42.0,M,,*7C





















$GNRMC,161253.00,A,0534.073847,N,02540.705132,W,0.0,,300620,8.4,W,A*00

























$GPGSV,3,1,11,01,23,043,35,02,02,226,22,03,32,082,27,06,34,220,37*74



























$GPGSV,3,2,11,17,63,327,34,19,47,292,38,22,24,059,37,28,77,120,29*7F



























$GPGSV,3,3,11,30,15,191,34,11,00,000,,24,11,314,*40












































$GLGSV,2,1,08,74,48,312,34,82,04,050,27,73,68,229,32,80,15,168,23*68



























$GLGSV,2,2,08,84,52,278,26,83,45,025,21,67,11,049,34,68,09,098,22*6C



























$GAGSV,1,1,0,*74















































































$PQGSV,1,1,0,*73















































































$GBGSV,1,1,0,*77















































































$GNGSA,A,3,01,03,06,17,19,22,28,30,,,,,1.1,0.8,0.8,1*32








































$GNGSA,A,3,67,68,73,74,80,83,84,,,,,,1.1,0.8,0.8,2*35










































$GNVTG,,T,,M,0.0,N,0.0,K,A*3D


































































$GNGGA,161254.00,0534.073846,N,02540.705133,W,1,12,0.8,57.0,M,-42.0,M,,*7B





















$GNRMC,161254.00,A,0534.073846,N,02540.705133,W,0.0,,300620,8.4,W,A*07

























$GPGSV,3,1,11,01,23,043,34,02,02,226,22,03,32,082,29,06,34,220,37*7B



























$GPGSV,3,2,11,17,63,327,33,19,47,292,37,22,24,059,36,28,77,120,28*77



























$GPGSV,3,3,11,30,15,191,33,11,00,000,,24,11,314,*47












































$GLGSV,2,1,08,74,48,312,34,82,04,050,27,73,68,229,32,80,15,168,23*68



























$GLGSV,2,2,08,84,52,278,25,83,45,025,20,67,11,049,34,68,09,098,19*66



























$GAGSV,1,1,0,*74















































































$PQGSV,1,1,0,*73















































































$GBGSV,1,1,0,*77















































































$GNGSA,A,3,01,03,06,17,19,22,28,30,,,,,1.1,0.8,0.8,1*32








































$GNGSA,A,3,67,68,73,74,80,83,84,,,,,,1.1,0.8,0.8,2*35










































$GNVTG,,T,,M,0.0,N,0.0,K,A*3D


































































$GNGGA,161255.00,0534.073845,N,02540.705133,W,1,12,0.8,57.0,M,-42.0,M,,*79





















$GNRMC,161255.00,A,0534.073845,N,02540.705133,W,0.0,,300620,8.4,W,A*05

























$GPGSV,3,1,11,01,23,043,32,02,02,226,26,03,32,082,32,06,34,220,36*72



























$GPGSV,3,2,11,17,63,327,35,19,47,292,36,22,24,059,34,28,77,120,29*73



























$GPGSV,3,3,11,30,15,191,34,11,00,000,,24,11,314,*40












































$GLGSV,2,1,08,74,48,312,33,82,04,050,29,73,68,229,31,80,15,168,28*69



























$GLGSV,2,2,08,84,52,278,23,83,45,025,18,67,11,049,33,68,09,098,28*6E



























$GAGSV,1,1,0,*74















































































$PQGSV,1,1,0,*73















































































$GBGSV,1,1,0,*77















































































$GNGSA,A,3,01,03,06,17,19,22,28,30,,,,,1.1,0.8,0.8,1*32








































$GNGSA,A,3,67,68,73,74,80,83,84,,,,,,1.1,0.8,0.8,2*35










































$GNVTG,74.5,T,74.5,M,0.3,N,0.6,K,A*38


























































$GNGGA,161256.00,0534.073839,N,02540.705077,W,1,12,0.8,58.0,M,-42.0,M,,*7F





















$GNRMC,161256.00,A,0534.073839,N,02540.705077,W,0.3,74.5,300620,8.4,W,A*17





















$GPGSV,3,1,11,01,23,043,32,02,02,226,30,03,32,082,34,06,34,220,31*74



























$GPGSV,3,2,11,17,63,327,35,19,47,292,33,22,24,059,31,24,11,314,21*72



























$GPGSV,3,3,11,28,77,120,31,30,15,191,34,11,00,000,*4B










































$GLGSV,2,1,08,74,48,312,31,82,04,050,30,73,68,229,33,80,15,168,29*60



























$GLGSV,2,2,08,84,52,278,19,83,45,025,23,67,11,049,30,68,09,098,32*67



























$GAGSV,1,1,0,*74















































































$PQGSV,1,1,0,*73















































































$GBGSV,1,1,0,*77















































































$GNGSA,A,3,01,03,06,17,19,22,28,30,,,,,1.0,0.7,0.7,1*33








































$GNGSA,A,3,67,68,73,74,80,83,84,,,,,,1.0,0.7,0.7,2*34










































$GNVTG,138.1,T,138.1,M,0.4,N,0.7,K,A*3E
























































$GNGGA,161257.00,0534.073797,N,02540.705027,W,1,12,0.7,58.0,M,-42.0,M,,*7F





















$GNRMC,161257.00,A,0534.073797,N,02540.705027,W,0.4,138.1,300620,8.4,W,A*22




















$GPGSV,3,1,11,01,23,043,32,02,02,226,33,03,32,082,34,06,34,220,27*70



























$GPGSV,3,2,11,17,63,327,35,19,47,292,34,22,24,059,33,24,11,314,31*76



























$GPGSV,3,3,11,28,77,120,32,30,15,191,34,11,00,000,*48










































$GLGSV,2,1,08,74,48,312,30,82,04,050,30,73,68,229,33,80,15,168,30*69



























$GLGSV,2,2,08,84,52,278,22,83,45,025,23,67,11,049,29,68,09,098,35*60



























$GAGSV,1,1,0,*74















































































$PQGSV,1,1,0,*73















































































$GBGSV,1,1,0,*77















































































$GNGSA,A,3,01,03,06,17,19,22,24,28,30,,,,1.0,0.7,0.7,1*35






































$GNGSA,A,3,67,68,73,74,80,83,84,,,,,,1.0,0.7,0.7,2*34










































$GNVTG,271.2,T,271.2,M,0.6,N,1.1,K,A*3B
























































$GNGGA,161258.00,0534.073653,N,02540.705023,W,1,12,0.7,58.0,M,-42.0,M,,*7D





















$GNRMC,161258.00,A,0534.073653,N,02540.705023,W,0.6,271.2,300620,8.4,W,A*2F




















$GPGSV,3,1,11,01,23,043,30,02,02,226,34,03,32,082,28,06,34,220,30*7E



























$GPGSV,3,2,11,17,63,327,35,19,47,292,34,22,24,059,25,24,11,314,30*70



























$GPGSV,3,3,11,28,77,120,33,30,15,191,32,11,00,000,*4F










































$GLGSV,2,1,08,74,48,312,31,82,04,050,31,73,68,229,28,80,15,168,30*63



























$GLGSV,2,2,08,84,52,278,22,83,45,025,24,67,11,049,32,68,09,098,35*6D



























$GAGSV,1,1,0,*74















































































$PQGSV,1,1,0,*73















































































$GBGSV,1,1,0,*77















































































$GNGSA,A,3,01,03,06,17,19,22,24,28,30,,,,1.0,0.7,0.7,1*35






































$GNGSA,A,3,67,68,73,74,80,83,84,,,,,,1.0,0.7,0.7,2*34










































$GNVTG,,T,,M,0.0,N,0.0,K,A*3D


































































$GNGGA,161259.00,0534.073541,N,02540.705122,W,1,12,0.7,58.0,M,-42.0,M,,*7C





















$GNRMC,161259.00,A,0534.073541,N,02540.705122,W,0.0,,300620,8.4,W,A*00

























$GPGSV,3,1,11,01,23,043,28,02,02,226,32,03,32,082,36,06,34,220,27*78



























$GPGSV,3,2,11,17,63,327,35,19,47,292,32,22,24,059,33,24,11,314,27*77



























$GPGSV,3,3,11,28,77,120,31,30,15,191,34,11,00,000,*4B










































$GLGSV,2,1,08,74,48,312,32,82,04,050,31,73,68,229,33,80,15,168,31*6B



























$GLGSV,2,2,08,84,52,278,19,83,45,025,24,67,11,049,32,68,09,098,34*64



























$GAGSV,1,1,0,*74















































































$PQGSV,1,1,0,*73















































































$GBGSV,1,1,0,*77















































































$GNGSA,A,3,01,03,06,17,19,22,24,28,30,,,,1.0,0.7,0.7,1*35






































$GNGSA,A,3,67,68,73,74,80,83,84,,,,,,1.0,0.7,0.7,2*34










































$GNVTG,271.1,T,271.1,M,0.5,N,0.9,K,A*31
























































$GNGGA,161300.00,0534.073578,N,02540.705218,W,1,12,0.7,58.0,M,-42.0,M,,*71





















$GNRMC,161300.00,A,0534.073578,N,02540.705218,W,0.5,271.1,300620,8.4,W,A*23




















$GPGSV,3,1,11,01,23,043,31,02,02,226,28,03,32,082,33,06,34,220,31*79



























$GPGSV,3,2,11,17,63,327,34,19,47,292,33,22,24,059,31,24,11,314,31*72



























$GPGSV,3,3,11,28,77,120,32,30,15,191,34,11,00,000,*48










































$GLGSV,2,1,08,74,48,312,31,82,04,050,29,73,68,229,33,80,15,168,31*61



























$GLGSV,2,2,08,84,52,278,23,83,45,025,23,67,11,049,28,68,09,098,31*64



























$GAGSV,1,1,0,*74















































































$PQGSV,1,1,0,*73















































































$GBGSV,1,1,0,*77















































































$GNGSA,A,3,01,03,06,17,19,22,24,28,30,,,,1.0,0.7,0.7,1*35






































$GNGSA,A,3,67,68,73,74,80,83,84,,,,,,1.0,0.7,0.7,2*34










































$GNVTG,271.1,T,271.1,M,0.7,N,1.3,K,A*38
























































$GNGGA,161301.00,0534.073653,N,02540.705168,W,1,12,0.7,57.0,M,-42.0,M,,*71





















$GNRMC,161301.00,A,0534.073653,N,02540.705168,W,0.7,271.1,300620,8.4,W,A*2E




















$GPGSV,3,1,11,01,23,043,30,02,02,226,27,03,32,082,34,06,34,220,30*71



























$GPGSV,3,2,11,17,63,327,35,19,47,292,34,22,24,059,31,24,11,314,33*76



























$GPGSV,3,3,11,28,77,120,31,30,15,191,34,11,00,000,*4B










































$GLGSV,2,1,08,74,48,312,32,82,04,050,27,73,68,229,34,80,15,168,30*6A



























$GLGSV,2,2,08,84,52,278,23,83,45,025,24,67,11,049,28,68,09,098,32*60



























$GAGSV,1,1,0,*74















































































$PQGSV,1,1,0,*73















































































$GBGSV,1,1,0,*77















































































$GNGSA,A,3,01,03,06,17,19,22,24,28,30,,,,1.0,0.7,0.7,1*35






































$GNGSA,A,3,67,68,73,74,80,83,84,,,,,,1.0,0.7,0.7,2*34










































$GNVTG,271.2,T,271.2,M,0.6,N,1.1,K,A*3B
























































$GNGGA,161302.00,0534.073624,N,02540.704983,W,1,12,0.7,59.0,M,-42.0,M,,*70





















$GNRMC,161302.00,A,0534.073624,N,02540.704983,W,0.6,271.2,300620,8.4,W,A*23




















$GPGSV,3,1,11,01,23,043,29,02,02,226,24,03,32,082,34,06,34,220,32*78



























$GPGSV,3,2,11,17,63,327,35,19,47,292,34,22,24,059,31,24,11,314,33*76



























$GPGSV,3,3,11,28,77,120,33,30,15,191,32,11,00,000,*4F










































$GLGSV,2,1,08,74,48,312,31,82,04,050,29,73,68,229,34,80,15,168,29*6F



























$GLGSV,2,2,08,84,52,278,22,83,45,025,24,67,11,049,29,68,09,098,33*61



























$GAGSV,1,1,0,*74















































































$PQGSV,1,1,0,*73















































































$GBGSV,1,1,0,*77















































































$GNGSA,A,3,01,03,06,17,19,22,24,28,30,,,,1.0,0.7,0.7,1*35






































$GNGSA,A,3,67,68,73,74,80,83,84,,,,,,1.0,0.7,0.7,2*34










































$GNVTG,271.2,T,271.2,M,0.9,N,1.6,K,A*33
























































$GNGGA,161303.00,0534.073446,N,02540.705032,W,1,12,0.7,59.0,M,-42.0,M,,*75





















$GNRMC,161303.00,A,0534.073446,N,02540.705032,W,0.9,271.2,300620,8.4,W,A*29




















$GPGSV,3,1,11,01,23,043,27,02,02,226,26,03,32,082,34,06,34,220,31*77



























$GPGSV,3,2,11,17,63,327,34,19,47,292,32,22,24,059,29,24,11,314,30*7B



























$GPGSV,3,3,11,28,77,120,32,30,15,191,33,11,00,000,*4F










































$GLGSV,2,1,08,74,48,312,31,82,04,050,30,73,68,229,32,80,15,168,29*61



























$GLGSV,2,2,08,84,52,278,24,83,45,025,24,67,11,049,27,68,09,098,31*6B



























$GAGSV,1,1,0,*74















































































$PQGSV,1,1,0,*73















































































$GBGSV,1,1,0,*77















































































$GNGSA,A,3,01,03,06,17,19,22,24,28,30,,,,1.0,0.7,0.7,1*35






































$GNGSA,A,3,67,68,73,74,80,83,84,,,,,,1.0,0.7,0.7,2*34










































$GNVTG,271.2,T,271.2,M,0.6,N,1.0,K,A*3A
























































$GNGGA,161304.00,0534.073389,N,02540.705263,W,1,12,0.7,59.0,M,-42.0,M,,*70





















$GNRMC,161304.00,A,0534.073389,N,02540.705263,W,0.6,271.2,300620,8.4,W,A*23




















$GPGSV,3,1,11,01,23,043,29,02,02,226,26,03,32,082,33,06,34,220,30*7F



























$GPGSV,3,2,11,17,63,327,35,19,47,292,32,22,24,059,30,24,11,314,29*7A



























$GPGSV,3,3,11,28,77,120,32,30,15,191,32,11,00,000,*4E










































$GLGSV,2,1,08,74,48,312,31,82,04,050,27,73,68,229,33,80,15,168,30*6E



























$GLGSV,2,2,08,84,52,278,22,83,45,025,24,67,11,049,29,68,09,098,31*63



























$GAGSV,1,1,0,*74















































































$PQGSV,1,1,0,*73















































































$GBGSV,1,1,0,*77















































































$GNGSA,A,3,01,03,06,17,19,22,24,28,30,,,,1.0,0.7,0.7,1*35






































$GNGSA,A,3,67,68,73,74,80,83,84,,,,,,1.0,0.7,0.7,2*34










































$GNVTG,271.1,T,271.1,M,0.4,N,0.7,K,A*3E
























































$GNGGA,161305.00,0534.073462,N,02540.705444,W,1,12,0.7,59.0,M,-42.0,M,,*70





















$GNRMC,161305.00,A,0534.073462,N,02540.705444,W,0.4,271.1,300620,8.4,W,A*22




















$GPGSV,3,1,11,01,23,043,30,02,02,226,26,03,32,082,32,06,34,220,30*76



























$GPGSV,3,2,11,17,63,327,35,19,47,292,33,22,24,059,29,24,11,314,32*79



























$GPGSV,3,3,11,28,77,120,31,30,15,191,34,11,00,000,*4B










































$GLGSV,2,1,08,74,48,312,31,82,04,050,27,73,68,229,33,80,15,168,30*6E



























$GLGSV,2,2,08,84,52,278,23,83,45,025,23,67,11,049,29,68,09,098,32*66



























$GAGSV,1,1,0,*74















































































$PQGSV,1,1,0,*73















































































$GBGSV,1,1,0,*77















































































$GNGSA,A,3,01,03,06,17,19,22,24,28,30,,,,1.0,0.7,0.7,1*35






































$GNGSA,A,3,67,68,73,74,80,83,84,,,,,,1.0,0.7,0.7,2*34










































$GNVTG,,T,,M,0.0,N,0.0,K,A*3D


































































$GNGGA,161306.00,0534.073536,N,02540.705513,W,1,12,0.7,60.0,M,-42.0,M,,*7A





















$GNRMC,161306.00,A,0534.073536,N,02540.705513,W,0.0,,300620,8.4,W,A*0D

























$GPGSV,3,1,11,01,23,043,30,02,02,226,27,03,32,082,31,06,34,220,30*74



























$GPGSV,3,2,11,17,63,327,35,19,47,292,34,22,24,059,30,24,11,314,33*77



























$GPGSV,3,3,11,28,77,120,31,30,15,191,35,11,00,000,*4A










































$GLGSV,2,1,08,74,48,312,32,82,04,050,29,73,68,229,34,80,15,168,30*64



























$GLGSV,2,2,08,84,52,278,22,83,45,025,22,67,11,049,29,68,09,098,31*65



























$GAGSV,1,1,0,*74















































































$PQGSV,1,1,0,*73















































































$GBGSV,1,1,0,*77















































































$GNGSA,A,3,01,03,06,17,19,22,24,28,30,,,,1.0,0.7,0.7,1*35






































$GNGSA,A,3,67,68,73,74,80,83,84,,,,,,1.0,0.7,0.7,2*34










































$GNVTG,271.1,T,271.1,M,0.6,N,1.2,K,A*38
























































$GNGGA,161307.00,0534.073459,N,02540.705433,W,1,12,0.7,62.0,M,-42.0,M,,*72





















