$GNGBH,186921.59,0513.118931,N,02459.200870,W,1,12,0.7,69.0,M,-42.0,M,,*7A





















$GNRMC,183021.00,A,0513.118931,N,02459.200870,W,0.0,,230720,8.5,W,A*06

























$GPGSV,3,1,10,02,68,357,23,04,03,032,24,05,58,216,34,06,41,063,23*7B



























$GPGSV,3,2,10,09,23,060,25,12,41,251,27,17,12,130,26,19,30,126,33*78



























$GPGSV,3,3,10,25,30,291,29,29,12,312,31*77





















































$GLGSV,3,1,09,74,04,233,16,70,33,180,25,76,00,000,15,75,16,286,33*69



























$GLGSV,3,2,09,69,63,081,25,83,14,101,16,85,33,319,34,68,21,030,20*6D



























$GLGSV,3,3,09,84,57,046,*50




































































$GAGSV,1,1,0,*74















































































$PQGSV,1,1,0,*73















































































$GBGSV,1,1,0,*77















































































$GNGSA,A,3,02,05,06,09,12,17,19,25,29,,,,1.0,0.7,0.8,1*36






































$GNGSA,A,3,68,70,74,83,85,,,,,,,,1.0,0.7,0.8,2*30














































$GNVTG,,T,,M,0.0,N,0.0,K,A*3D


































































$GNGGA,183022.00,0513.118921,N,02459.200935,W,1,12,0.7,69.0,M,-42.0,M,,*78





















$GNRMC,183022.00,A,0513.118921,N,02459.200935,W,0.0,,230720,8.5,W,A*04

























$GPGSV,3,1,10,02,68,357,19,04,03,032,24,05,58,216,31,06,41,063,14*73



























$GPGSV,3,2,10,09,23,060,25,12,41,251,25,17,12,130,25,19,30,126,30*7A



























$GPGSV,3,3,10,25,30,291,27,29,12,312,27*7E





















































$GLGSV,3,1,09,74,04,233,16,70,33,180,22,76,00,000,15,75,16,286,30*6D



























$GLGSV,3,2,09,69,63,081,23,83,14,101,16,85,33,319,32,68,21,030,20*6D



























$GLGSV,3,3,09,84,57,046,*50




































































$GAGSV,1,1,0,*74















































































$PQGSV,1,1,0,*73















































































$GBGSV,1,1,0,*77















































































$GNGSA,A,3,02,05,06,09,12,17,19,25,29,,,,1.0,0.7,0.8,1*36






































$GNGSA,A,3,68,70,74,83,85,,,,,,,,1.0,0.7,0.8,2*30














































$GNVTG,,T,,M,0.0,N,0.0,K,A*3D


































































$GNGGA,183023.00,0513.118855,N,02459.200945,W,1,12,0.7,70.0,M,-42.0,M,,*74





















$GNRMC,183023.00,A,0513.118855,N,02459.200945,W,0.0,,230720,8.5,W,A*00

























$GPGSV,3,1,10,02,68,357,19,04,03,032,24,05,58,216,28,06,41,063,14*7B



























$GPGSV,3,2,10,09,23,060,25,12,41,251,24,17,12,130,24,19,30,126,29*72



























$GPGSV,3,3,10,25,30,291,25,29,12,312,25*7E





















































$GLGSV,3,1,09,74,04,233,16,70,33,180,24,76,00,000,15,75,16,286,29*63



























$GLGSV,3,2,09,69,63,081,24,83,14,101,16,85,33,319,31,68,21,030,20*69



























$GLGSV,3,3,09,84,57,046,*50




































































$GAGSV,1,1,0,*74















































































$PQGSV,1,1,0,*73















































































$GBGSV,1,1,0,*77















































































$GNGSA,A,3,02,05,06,09,12,17,19,25,29,,,,1.2,0.8,0.8,1*3B






































$GNGSA,A,3,68,70,74,83,85,,,,,,,,1.2,0.8,0.8,2*3D














































$GNVTG,,T,,M,0.0,N,0.0,K,A*3D


































































$GNGGA,183024.00,0513.118804,N,02459.200950,W,1,12,0.8,70.0,M,-42.0,M,,*7C





















$GNRMC,183024.00,A,0513.118804,N,02459.200950,W,0.0,,230720,8.5,W,A*07

























$GPGSV,3,1,10,02,68,357,18,04,03,032,24,05,58,216,32,06,41,063,14*71



























$GPGSV,3,2,10,09,23,060,14,12,41,251,25,17,12,130,25,19,30,126,31*79



























$GPGSV,3,3,10,25,30,291,28,29,12,312,27*71





















































$GLGSV,3,1,09,74,04,233,16,70,33,180,24,76,00,000,15,75,16,286,30*6B



























$GLGSV,3,2,09,69,63,081,27,83,14,101,16,85,33,319,31,68,21,030,20*6A



























$GLGSV,3,3,09,84,57,046,*50




































































$GAGSV,1,1,0,*74















































































$PQGSV,1,1,0,*73















































































$GBGSV,1,1,0,*77















































































$GNGSA,A,3,02,05,06,09,12,17,19,25,29,,,,1.2,0.8,0.8,1*3B






































$GNGSA,A,2,70,85,,,,,,,,,,,1.2,0.8,0.8,2*3A




















































$GNVTG,,T,,M,0.0,N,0.0,K,A*3D


































































$GNGGA,183025.00,0513.118791,N,02459.200953,W,1,11,0.8,70.0,M,-42.0,M,,*7E





















$GNRMC,183025.00,A,0513.118791,N,02459.200953,W,0.0,,230720,8.5,W,A*06

























$GPGSV,3,1,10,02,68,357,26,04,03,032,24,05,58,216,34,06,41,063,15*7B



























$GPGSV,3,2,10,09,23,060,23,12,41,251,27,17,12,130,26,19,30,126,34*79



























$GPGSV,3,3,10,25,30,291,30,29,12,312,29*76





















































$GLGSV,3,1,09,74,04,233,16,70,33,180,24,76,00,000,15,75,16,286,28*62



























$GLGSV,3,2,09,69,63,081,32,83,14,101,16,85,33,319,35,68,21,030,12*6B



























$GLGSV,3,3,09,84,57,046,*50




































































$GAGSV,1,1,0,*74















































































$PQGSV,1,1,0,*73















































































$GBGSV,1,1,0,*77















































































$GNGSA,A,3,02,05,06,09,12,17,19,25,29,,,,1.1,0.7,0.8,1*37






































$GNGSA,A,2,70,85,,,,,,,,,,,1.1,0.7,0.8,2*36




















































$GNVTG,,T,,M,0.0,N,0.0,K,A*3D


































































$GNGGA,183026.00,0513.118807,N,02459.200973,W,1,11,0.7,71.0,M,-42.0,M,,*71





















$GNRMC,183026.00,A,0513.118807,N,02459.200973,W,0.0,,230720,8.5,W,A*07

























$GPGSV,3,1,10,02,68,357,25,04,03,032,24,05,58,216,35,06,41,063,20*7F



























$GPGSV,3,2,10,09,23,060,26,12,41,251,28,17,12,130,26,19,30,126,34*73



























$GPGSV,3,3,10,25,30,291,30,29,12,312,30*7E





















































$GLGSV,3,1,09,74,04,233,16,70,33,180,24,76,00,000,15,75,16,286,28*62



























$GLGSV,3,2,09,69,63,081,33,83,14,101,16,85,33,319,35,68,21,030,20*6B



























$GLGSV,3,3,09,84,57,046,*50




































































$GAGSV,1,1,0,*74















































































$PQGSV,1,1,0,*73















































































$GBGSV,1,1,0,*77















































































$GNGSA,A,3,02,05,06,09,12,17,19,25,29,,,,1.1,0.7,0.8,1*37






































$GNGSA,A,2,68,70,85,,,,,,,,,,1.1,0.7,0.8,2*38


















































$GNVTG,,T,,M,0.0,N,0.0,K,A*3D


































































$GNGGA,183027.00,0513.118735,N,02459.200947,W,1,12,0.7,70.0,M,-42.0,M,,*7B





















$GNRMC,183027.00,A,0513.118735,N,02459.200947,W,0.0,,230720,8.5,W,A*0F

























$GPGSV,3,1,10,02,68,357,24,04,03,032,12,05,58,216,35,06,41,063,19*71



























$GPGSV,3,2,10,09,23,060,27,12,41,251,28,17,12,130,27,19,30,126,34*73



























$GPGSV,3,3,10,25,30,291,30,29,12,312,30*7E





















































$GLGSV,3,1,09,74,04,233,16,70,33,180,24,76,00,000,15,75,16,286,28*62



























$GLGSV,3,2,09,69,63,081,32,84,57,046,17,83,14,101,16,85,33,319,35*6C



























$GLGSV,3,3,09,68,21,030,22*52


































































$GAGSV,1,1,0,*74















































































$PQGSV,1,1,0,*73















































































$GBGSV,1,1,0,*77















































































$GNGSA,A,3,02,05,06,09,12,17,19,25,29,,,,1.1,0.7,0.8,1*37






































$GNGSA,A,2,68,70,85,,,,,,,,,,1.1,0.7,0.8,2*38


















































$GNVTG,,T,,M,0.0,N,0.0,K,A*3D


































































$GNGGA,183028.00,0513.118796,N,02459.200958,W,1,12,0.7,71.0,M,-42.0,M,,*72





















$GNRMC,183028.00,A,0513.118796,N,02459.200958,W,0.0,,230720,8.5,W,A*07

























$GPGSV,3,1,10,02,68,357,23,04,03,032,17,05,58,216,34,06,41,063,18*73



























$GPGSV,3,2,10,09,23,060,26,12,41,251,28,17,12,130,26,19,30,126,34*73



























$GPGSV,3,3,10,25,30,291,29,29,12,312,30*76





















































$GLGSV,3,1,09,74,04,233,16,70,33,180,23,76,00,000,15,75,16,286,28*65



























$GLGSV,3,2,09,69,63,081,32,84,57,046,16,83,14,101,16,85,33,319,35*6D



























$GLGSV,3,3,09,68,21,030,17*54


































































$GAGSV,1,1,0,*74















































































$PQGSV,1,1,0,*73















































































$GBGSV,1,1,0,*77















































































$GNGSA,A,3,02,05,06,09,12,17,19,25,29,,,,1.1,0.7,0.8,1*37






































$GNGSA,A,2,68,70,85,,,,,,,,,,1.1,0.7,0.8,2*38


















































$GNVTG,,T,,M,0.0,N,0.0,K,A*3D


































































$GNGGA,183029.00,0513.118891,N,02459.200901,W,1,12,0.7,71.0,M,-42.0,M,,*77





















$GNRMC,183029.00,A,0513.118891,N,02459.200901,W,0.0,,230720,8.5,W,A*02

























$GPGSV,3,1,10,02,68,357,21,04,03,032,17,05,58,216,33,06,41,063,18*76



























$GPGSV,3,2,10,09,23,060,26,12,41,251,27,17,12,130,25,19,30,126,33*78



























$GPGSV,3,3,10,25,30,291,28,29,12,312,28*7E





















































$GLGSV,3,1,09,74,04,233,08,70,33,180,24,76,00,000,15,75,16,286,27*62



























$GLGSV,3,2,09,69,63,081,32,84,57,046,15,83,14,101,16,85,33,319,34*6F



























$GLGSV,3,3,09,68,21,030,20*50


































































$GAGSV,1,1,0,*74















































































$PQGSV,1,1,0,*73















































































$GBGSV,1,1,0,*77















































































$GNGSA,A,3,02,05,06,09,12,17,19,25,29,,,,1.0,0.7,0.7,1*39






































$GNGSA,A,3,68,70,84,85,,,,,,,,,1.0,0.7,0.7,2*3B
















































$GNVTG,,T,,M,0.0,N,0.0,K,A*3D


































































$GNGGA,183030.00,0513.118979,N,02459.200845,W,1,12,0.7,71.0,M,-42.0,M,,*79





















$GNRMC,183030.00,A,0513.118979,N,02459.200845,W,0.0,,230720,8.5,W,A*0C

























$GPGSV,3,1,10,02,68,357,23,04,03,032,17,05,58,216,34,06,41,063,20*78



























$GPGSV,3,2,10,09,23,060,26,12,41,251,28,17,12,130,26,19,30,126,34*73



























$GPGSV,3,3,10,25,30,291,28,29,12,312,30*77





















































$GLGSV,3,1,09,74,04,233,08,70,33,180,24,76,00,000,15,75,16,286,28*6D



























$GLGSV,3,2,09,69,63,081,32,84,57,046,15,83,14,101,16,85,33,319,35*6E



























$GLGSV,3,3,09,68,21,030,19*5A


































































$GAGSV,1,1,0,*74















































































$PQGSV,1,1,0,*73















































































$GBGSV,1,1,0,*77















































































$GNGSA,A,3,02,05,06,09,12,17,19,25,29,,,,1.0,0.7,0.7,1*39






































$GNGSA,A,3,68,70,74,84,85,,,,,,,,1.0,0.7,0.7,2*38














































$GNVTG,,T,,M,0.0,N,0.0,K,A*3D


































































$GNGGA,183031.00,0513.119036,N,02459.200790,W,1,12,0.7,71.0,M,-42.0,M,,*7C





















$GNRMC,183031.00,A,0513.119036,N,02459.200790,W,0.0,,230720,8.5,W,A*09

























$GPGSV,3,1,10,02,68,357,23,04,03,032,15,05,58,216,34,06,41,063,20*7A



























$GPGSV,3,2,10,09,23,060,26,12,41,251,28,17,12,130,28,19,30,126,34*7D



























$GPGSV,3,3,10,25,30,291,29,29,12,312,30*76





















































$GLGSV,3,1,09,74,04,233,08,70,33,180,23,76,00,000,15,75,16,286,28*6A



























$GLGSV,3,2,09,69,63,081,32,84,57,046,15,83,14,101,16,85,33,319,35*6E



























$GLGSV,3,3,09,68,21,030,22*52


































































$GAGSV,1,1,0,*74















































































$PQGSV,1,1,0,*73















































































$GBGSV,1,1,0,*77















































































$GNGSA,A,3,02,05,06,09,12,17,19,25,29,,,,1.0,0.6,0.7,1*38






































$GNGSA,A,3,68,70,74,84,85,,,,,,,,1.0,0.6,0.7,2*39














































$GNVTG,,T,,M,0.0,N,0.0,K,A*3D


































































$GNGGA,183032.00,0513.119145,N,02459.200672,W,1,12,0.6,72.0,M,-42.0,M,,*75





















$GNRMC,183032.00,A,0513.119145,N,02459.200672,W,0.0,,230720,8.5,W,A*02

























$GPGSV,3,1,10,02,68,357,23,04,03,032,15,05,58,216,35,06,41,063,20*7B



























$GPGSV,3,2,10,09,23,060,26,12,41,251,28,17,12,130,27,19,30,126,35*73



























$GPGSV,3,3,10,25,30,291,29,29,12,312,30*76





















































$GLGSV,3,1,09,74,04,233,08,70,33,180,23,76,00,000,09,75,16,286,28*67



























$GLGSV,3,2,09,69,63,081,32,84,57,046,15,83,14,101,16,85,33,319,35*6E



























$GLGSV,3,3,09,68,21,030,21*51


































































$GAGSV,1,1,0,*74















































































$PQGSV,1,1,0,*73















































































$GBGSV,1,1,0,*77















































































$GNGSA,A,3,02,05,06,09,12,17,19,25,29,,,,1.0,0.6,0.7,1*38






































$GNGSA,A,3,68,69,70,74,75,84,85,,,,,,1.0,0.6,0.7,2*34










































$GNVTG,,T,,M,0.0,N,0.0,K,A*3D


































































$GNGGA,183033.00,0513.119232,N,02459.200563,W,1,12,0.6,72.0,M,-42.0,M,,*74





















$GNRMC,183033.00,A,0513.119232,N,02459.200563,W,0.0,,230720,8.5,W,A*03

























$GPGSV,3,1,10,02,68,357,22,04,03,032,15,05,58,216,33,06,41,063,20*7C



























$GPGSV,3,2,10,09,23,060,25,12,41,251,29,17,12,130,26,19,30,126,33*76



























$GPGSV,3,3,10,25,30,291,27,29,12,312,30*78





















































$GLGSV,3,1,09,74,04,233,08,70,33,180,22,76,00,000,09,75,16,286,28*66



























$GLGSV,3,2,09,69,63,081,31,84,57,046,15,83,14,101,16,85,33,319,34*6C



























$GLGSV,3,3,09,68,21,030,20*50


































































$GAGSV,1,1,0,*74















































































$PQGSV,1,1,0,*73















































































$GBGSV,1,1,0,*77















































































$GNGSA,A,3,02,05,06,09,12,17,19,25,29,,,,1.0,0.6,0.7,1*38






































$GNGSA,A,3,68,69,70,74,75,84,85,,,,,,1.0,0.6,0.7,2*34










































$GNVTG,,T,,M,0.0,N,0.0,K,A*3D


































































$GNGGA,183034.00,0513.119261,N,02459.200526,W,1,12,0.6,72.0,M,-42.0,M,,*74





















$GNRMC,183034.00,A,0513.119261,N,02459.200526,W,0.0,,230720,8.5,W,A*03

























$GPGSV,3,1,10,02,68,357,23,04,03,032,15,05,58,216,31,06,41,063,24*7B



























$GPGSV,3,2,10,09,23,060,32,12,41,251,29,17,12,130,27,19,30,126,29*7A



























$GPGSV,3,3,10,25,30,291,28,29,12,312,31*76





















































$GLGSV,3,1,09,74,04,233,08,70,33,180,24,76,00,000,16,75,16,286,31*66



























$GLGSV,3,2,09,69,63,081,31,84,57,046,15,83,14,101,16,85,33,319,33*6B



























$GLGSV,3,3,09,68,21,030,27*57


































































$GAGSV,1,1,0,*74















































































$PQGSV,1,1,0,*73















































































$GBGSV,1,1,0,*77















































































$GNGSA,A,3,02,05,06,09,12,17,19,25,29,,,,1.0,0.6,0.7,1*38






































$GNGSA,A,3,68,69,70,74,75,84,85,,,,,,1.0,0.6,0.7,2*34










































$GNVTG,,T,,M,0.0,N,0.0,K,A*3D


































































$GNGGA,183035.00,0513.119260,N,02459.200504,W,1,12,0.6,72.0,M,-42.0,M,,*74





















$GNRMC,183035.00,A,0513.119260,N,02459.200504,W,0.0,,230720,8.5,W,A*03

























$GPGSV,3,1,10,02,68,357,31,04,03,032,23,05,58,216,33,06,41,063,29*72



























$GPGSV,3,2,10,09,23,060,34,12,41,251,31,17,12,130,26,19,30,126,29*74



























$GPGSV,3,3,10,25,30,291,31,29,12,312,28*76





















































$GLGSV,3,1,09,74,04,233,12,70,33,180,23,76,00,000,17,75,16,286,30*6A



























$GLGSV,3,2,09,69,63,081,33,84,57,046,16,83,14,101,16,85,33,319,34*6D



























$GLGSV,3,3,09,68,21,030,30*51


































































$GAGSV,1,1,0,*74















































































$PQGSV,1,1,0,*73















































































$GBGSV,1,1,0,*77















































































$GNGSA,A,3,02,05,06,09,12,17,19,25,29,,,,1.0,0.6,0.7,1*38






































$GNGSA,A,3,68,69,70,74,75,84,85,,,,,,1.0,0.6,0.7,2*34










































$GNVTG,203.4,T,203.4,M,0.6,N,1.0,K,A*3A
























































$GNGGA,183036.00,0513.119017,N,02459.200675,W,1,12,0.6,71.0,M,-42.0,M,,*73





















$GNRMC,183036.00,A,0513.119017,N,02459.200675,W,0.6,203.4,230720,8.5,W,A*2A




















$GPGSV,3,1,10,02,68,357,30,04,03,032,24,05,58,216,33,06,41,063,30*7C



























$GPGSV,3,2,10,09,23,060,34,12,41,251,31,17,12,130,27,19,30,126,26*7A



























$GPGSV,3,3,10,25,30,291,30,29,12,312,29*76





















































$GLGSV,3,1,09,74,04,233,17,70,33,180,22,76,00,000,17,75,16,286,28*67



























$GLGSV,3,2,09,69,63,081,33,84,57,046,16,83,14,101,16,85,33,319,33*6A



























$GLGSV,3,3,09,68,21,030,32*53


































































$GAGSV,1,1,0,*74















































































$PQGSV,1,1,0,*73















































































$GBGSV,1,1,0,*77















































































$GNGSA,A,3,02,05,06,09,12,17,19,25,29,,,,1.0,0.6,0.7,1*38






































$GNGSA,A,3,68,69,70,74,75,84,85,,,,,,1.0,0.6,0.7,2*34










































$GNVTG,203.4,T,203.4,M,0.4,N,0.8,K,A*31
























































$GNGGA,183037.00,0513.118921,N,02459.200671,W,1,12,0.6,71.0,M,-42.0,M,,*7B





















$GNRMC,183037.00,A,0513.118921,N,02459.200671,W,0.4,203.4,230720,8.5,W,A*20




















$GPGSV,3,1,10,02,68,357,30,04,03,032,23,05,58,216,34,06,41,063,32*7E



























$GPGSV,3,2,10,09,23,060,34,12,41,251,33,17,12,130,26,19,30,126,28*77



























$GPGSV,3,3,10,25,30,291,31,29,12,312,28*76





















































$GLGSV,3,1,09,74,04,233,17,70,33,180,22,76,00,000,21,75,16,286,29*63



























$GLGSV,3,2,09,69,63,081,34,84,57,046,16,83,14,101,16,85,33,319,33*6D



























$GLGSV,3,3,09,68,21,030,31*50


































































$GAGSV,1,1,0,*74















































































$PQGSV,1,1,0,*73















































































$GBGSV,1,1,0,*77















































































$GNGSA,A,3,02,05,06,09,12,17,19,25,29,,,,1.0,0.6,0.7,1*38






































$GNGSA,A,3,68,69,70,74,75,84,85,,,,,,1.0,0.6,0.7,2*34










































$GNVTG,,T,,M,0.0,N,0.0,K,A*3D


































































$GNGGA,183038.00,0513.118936,N,02459.200655,W,1,12,0.6,70.0,M,-42.0,M,,*75





















$GNRMC,183038.00,A,0513.118936,N,02459.200655,W,0.0,,230720,8.5,W,A*00

























$GPGSV,3,1,10,02,68,357,28,04,03,032,24,05,58,216,33,06,41,063,29*7D



























$GPGSV,3,2,10,09,23,060,30,12,41,251,30,17,12,130,28,19,30,126,27*71



























$GPGSV,3,3,10,25,30,291,30,29,12,312,28*77





















































$GLGSV,3,1,09,74,04,233,17,70,33,180,21,76,00,000,21,75,16,286,26*6F



























$GLGSV,3,2,09,69,63,081,34,84,57,046,16,83,14,101,16,85,33,319,33*6D



























$GLGSV,3,3,09,68,21,030,29*59


































































$GAGSV,1,1,0,*74















































































$PQGSV,1,1,0,*73















































































$GBGSV,1,1,0,*77















































































$GNGSA,A,3,02,05,06,09,12,17,19,25,29,,,,1.0,0.6,0.7,1*38






































$GNGSA,A,3,68,69,70,74,75,84,85,,,,,,1.0,0.6,0.7,2*34










































$GNVTG,203.4,T,203.4,M,0.6,N,1.1,K,A*3B
























































$GNGGA,183039.00,0513.119056,N,02459.200672,W,1,12,0.6,71.0,M,-42.0,M,,*7E





















$GNRMC,183039.00,A,0513.119056,N,02459.200672,W,0.6,203.4,230720,8.5,W,A*27




















$GPGSV,3,1,10,02,68,357,29,04,03,032,19,05,58,216,33,06,41,063,34*7E



























$GPGSV,3,2,10,09,23,060,28,12,41,251,31,17,12,130,30,19,30,126,29*7E



























$GPGSV,3,3,10,25,30,291,29,29,12,312,31*77





















































$GLGSV,3,1,09,74,04,233,21,70,33,180,19,76,00,000,24,75,16,286,27*65



























$GLGSV,3,2,09,69,63,081,32,84,57,046,18,83,14,101,13,85,33,319,32*61



























$GLGSV,3,3,09,68,21,030,27*57


































































$GAGSV,1,1,0,*74















































































$PQGSV,1,1,0,*73















































































$GBGSV,1,1,0,*77















































































$GNGSA,A,3,02,05,06,09,12,17,19,25,29,,,,0.9,0.6,0.7,1*30






































$GNGSA,A,3,68,69,70,74,75,84,85,,,,,,0.9,0.6,0.7,2*3C










































$GNVTG,203.4,T,203.4,M,1.0,N,1.9,K,A*34
























































$GNGGA,183040.00,0513.118956,N,02459.200588,W,1,12,0.6,73.0,M,-42.0,M,,*7C





















$GNRMC,183040.00,A,0513.118956,N,02459.200588,W,1.0,203.4,230720,8.5,W,A*20




















$GPGSV,3,1,10,02,68,357,32,04,03,032,23,05,58,216,33,06,41,063,35*7C



























$GPGSV,3,2,10,09,23,060,31,12,41,251,31,17,12,130,30,19,30,126,28*77



























$GPGSV,3,3,10,25,30,291,29,29,12,312,28*7F





















































$GLGSV,3,1,09,74,04,233,26,70,33,180,23,76,00,000,26,75,16,286,28*66



























$GLGSV,3,2,09,69,63,081,33,84,57,046,23,83,14,101,13,85,33,319,31*6B



























$GLGSV,3,3,09,68,21,030,31*50


































































$GAGSV,1,1,0,*74















































































$PQGSV,1,1,0,*73















































































$GBGSV,1,1,0,*77















































































$GNGSA,A,3,02,05,06,09,12,17,19,25,29,,,,0.9,0.6,0.7,1*30






































$GNGSA,A,3,68,69,70,74,75,83,84,85,,,,,0.9,0.6,0.7,2*37








































$GNVTG,194.3,T,194.3,M,4.7,N,8.8,K,A*3E
























































$GNGGA,183041.00,0513.118054,N,02459.200597,W,1,12,0.6,75.0,M,-42.0,M,,*7E





















$GNRMC,183041.00,A,0513.118054,N,02459.200597,W,4.7,194.3,230720,8.5,W,A*2C




















$GPGSV,3,1,10,02,68,357,32,04,03,032,22,05,58,216,32,06,41,063,33*7A



























$GPGSV,3,2,10,09,23,060,32,12,41,251,31,17,12,130,29,19,30,126,28*7C



























$GPGSV,3,3,10,25,30,291,29,29,12,312,29*7E





















































$GLGSV,3,1,09,74,04,233,28,70,33,180,25,76,00,000,29,75,16,286,30*68



























$GLGSV,3,2,09,69,63,081,31,84,57,046,21,83,14,101,13,85,33,319,33*69



























$GLGSV,3,3,09,68,21,030,31*50


































































$GAGSV,1,1,0,*74















































































$PQGSV,1,1,0,*73















































































$GBGSV,1,1,0,*77















































































$GNGSA,A,3,02,05,06,09,12,17,19,25,29,,,,0.9,0.6,0.7,1*30






































$GNGSA,A,3,68,69,70,74,75,83,84,85,,,,,0.9,0.6,0.7,2*37








































$GNVTG,194.8,T,194.8,M,8.1,N,15.1,K,A*01























































$GNGGA,183042.00,0513.116162,N,02459.201253,W,1,12,0.6,75.0,M,-42.0,M,,*79





















$GNRMC,183042.00,A,0513.116162,N,02459.201253,W,8.1,194.8,230720,8.5,W,A*2A




















$GPGSV,3,1,10,02,68,357,32,04,03,032,21,05,58,216,32,06,41,063,32*78



























$GPGSV,3,2,10,09,23,060,33,12,41,251,31,17,12,130,28,19,30,126,27*73



























$GPGSV,3,3,10,25,30,291,32,29,12,312,29*74





















































$GLGSV,3,1,09,74,04,233,27,70,33,180,23,76,00,000,28,75,16,286,29*68



























$GLGSV,3,2,09,69,63,081,32,84,57,046,21,83,14,101,16,85,33,319,34*68



























$GLGSV,3,3,09,68,21,030,31*50


































































$GAGSV,1,1,0,*74















































































$PQGSV,1,1,0,*73















































































$GBGSV,1,1,0,*77















































































$GNGSA,A,3,02,05,06,09,12,17,19,25,29,,,,0.9,0.6,0.7,1*30






































$GNGSA,A,3,68,69,70,74,75,83,84,85,,,,,0.9,0.6,0.7,2*37








































$GNVTG,210.5,T,210.5,M,3.6,N,6.7,K,A*39
























































$GNGGA,183043.00,0513.114843,N,02459.202211,W,1,12,0.6,76.0,M,-42.0,M,,*76





















$GNRMC,183043.00,A,0513.114843,N,02459.202211,W,3.6,210.5,230720,8.5,W,A*28




















$GPGSV,3,1,10,02,68,357,32,04,03,032,20,05,58,216,32,06,41,063,32*79



























$GPGSV,3,2,10,09,23,060,33,12,41,251,32,17,12,130,27,19,30,126,27*7F



























$GPGSV,3,3,10,25,30,291,31,29,12,312,27*79





















































$GLGSV,3,1,09,74,04,233,25,70,33,180,23,76,00,000,28,75,16,286,28*6B



























$GLGSV,3,2,09,69,63,081,33,84,57,046,20,83,14,101,16,85,33,319,34*68



























$GLGSV,3,3,09,68,21,030,29*59


































































$GAGSV,1,1,0,*74















































































$PQGSV,1,1,0,*73















































































$GBGSV,1,1,0,*77















































































$GNGSA,A,3,02,05,06,09,12,17,19,25,29,,,,0.9,0.6,0.7,1*30






































$GNGSA,A,3,68,69,70,74,75,83,84,85,,,,,0.9,0.6,0.7,2*37








































$GNVTG,309.9,T,309.9,M,2.4,N,4.4,K,A*3B
























































$GNGGA,183044.00,0513.114574,N,02459.203094,W,1,12,0.6,77.0,M,-42.0,M,,*77





















$GNRMC,183044.00,A,0513.114574,N,02459.203094,W,2.4,309.9,230720,8.5,W,A*2E




















$GPGSV,3,1,10,02,68,357,33,04,03,032,18,05,58,216,32,06,41,063,35*74



























$GPGSV,3,2,10,09,23,060,32,12,41,251,31,17,12,130,27,19,30,126,25*7F



























$GPGSV,3,3,10,25,30,291,29,29,12,312,26*71





















































$GLGSV,3,1,09,74,04,233,26,70,33,180,24,76,00,000,26,75,16,286,28*61



























$GLGSV,3,2,09,69,63,081,33,84,57,046,22,83,14,101,19,85,33,319,33*62



























$GLGSV,3,3,09,68,21,030,30*51


































































$GAGSV,1,1,0,*74















































































$PQGSV,1,1,0,*73















































































$GBGSV,1,1,0,*77















































































$GNGSA,A,3,02,05,06,09,12,17,19,25,29,,,,0.9,0.6,0.7,1*30






































$GNGSA,A,3,68,69,70,74,75,83,84,85,,,,,0.9,0.6,0.7,2*37








































$GNVTG,230.2,T,230.2,M,2.6,N,4.8,K,A*35
























































$GNGGA,183045.00,0513.114560,N,02459.204043,W,1,12,0.6,79.0,M,-42.0,M,,*70





















$GNRMC,183045.00,A,0513.114560,N,02459.204043,W,2.6,230.2,230720,8.5,W,A*25




















$GPGSV,3,1,10,02,68,357,33,04,03,032,21,05,58,216,31,06,41,063,34*7C



























$GPGSV,3,2,10,09,23,060,33,12,41,251,31,17,12,130,29,19,30,126,26*73



























$GPGSV,3,3,10,25,30,291,28,29,12,312,27*71





















































$GLGSV,3,1,09,74,04,233,29,70,33,180,23,76,00,000,26,75,16,286,28*69



























$GLGSV,3,2,09,69,63,081,32,84,57,046,22,83,14,101,20,85,33,319,33*69



























$GLGSV,3,3,09,68,21,030,32*53


































































$GAGSV,1,1,0,*74















































































$PQGSV,1,1,0,*73















































































$GBGSV,1,1,0,*77















































































$GNGSA,A,3,02,05,06,09,12,17,19,25,29,,,,0.9,0.6,0.7,1*30






































$GNGSA,A,3,68,69,70,74,75,83,84,85,,,,,0.9,0.6,0.7,2*37








































$GNVTG,219.7,T,219.7,M,6.8,N,12.7,K,A*07























































$GNGGA,183046.00,0513.113671,N,02459.205296,W,1,12,0.6,81.0,M,-42.0,M,,*7B





















$GNRMC,183046.00,A,0513.113671,N,02459.205296,W,6.8,219.7,230720,8.5,W,A*2D




















$GPGSV,3,1,10,02,68,357,32,04,03,032,24,05,58,216,31,06,41,063,30*7C



























$GPGSV,3,2,10,09,23,060,33,12,41,251,31,17,12,130,28,19,30,126,28*7C



























$GPGSV,3,3,10,25,30,291,30,29,12,312,30*7E





















































$GLGSV,3,1,09,74,04,233,29,70,33,180,24,76,00,000,31,75,16,286,30*61



























$GLGSV,3,2,09,69,63,081,28,84,57,046,19,83,14,101,20,85,33,319,35*6C



























$GLGSV,3,3,09,68,21,030,35*54


































































$GAGSV,1,1,0,*74















































































$PQGSV,1,1,0,*73















































































$GBGSV,1,1,0,*77















































































$GNGSA,A,3,02,05,06,09,12,17,19,25,29,,,,0.9,0.6,0.7,1*30






































$GNGSA,A,3,68,69,70,74,75,83,84,85,,,,,0.9,0.6,0.7,2*37








































$GNVTG,203.1,T,203.1,M,5.1,N,9.5,K,A*35
























































$GNGGA,183047.00,0513.112199,N,02459.206334,W,1,12,0.6,82.0,M,-42.0,M,,*73





















$GNRMC,183047.00,A,0513.112199,N,02459.206334,W,5.1,203.1,230720,8.5,W,A*21




















$GPGSV,3,1,10,02,68,357,31,04,03,032,27,05,58,216,32,06,41,063,30*7F



























$GPGSV,3,2,10,09,23,060,32,12,41,251,32,17,12,130,27,19,30,126,27*7E



























$GPGSV,3,3,10,25,30,291,31,29,12,312,27*79





















































$GLGSV,3,1,09,74,04,233,28,70,33,180,22,76,00,000,28,75,16,286,29*66



























$GLGSV,3,2,09,69,63,081,33,84,57,046,21,83,14,101,18,85,33,319,34*67



























$GLGSV,3,3,09,68,21,030,35*54


































































$GAGSV,1,1,0,*74















































































$PQGSV,1,1,0,*73















































































$GBGSV,1,1,0,*77















































































$GNGSA,A,3,02,05,06,09,12,17,19,25,29,,,,0.9,0.6,0.7,1*30






































$GNGSA,A,3,68,69,70,74,75,83,84,85,,,,,0.9,0.6,0.7,2*37








































$GNVTG,272.8,T,272.8,M,2.9,N,5.4,K,A*37
























































$GNGGA,183048.00,0513.111409,N,02459.206962,W,1,12,0.6,82.0,M,-42.0,M,,*7A





















$GNRMC,183048.00,A,0513.111409,N,02459.206962,W,2.9,272.8,230720,8.5,W,A*28




















$GPGSV,3,1,10,02,68,357,31,04,03,032,30,05,58,216,32,06,41,063,32*7B



























$GPGSV,3,2,10,09,23,060,33,12,41,251,32,17,12,130,27,19,30,126,25*7D



























$GPGSV,3,3,10,25,30,291,30,29,12,312,27*78





















































$GLGSV,3,1,09,74,04,233,29,70,33,180,22,76,00,000,27,75,16,286,28*69



























$GLGSV,3,2,09,69,63,081,33,84,57,046,21,83,14,101,18,85,33,319,34*67



























$GLGSV,3,3,09,68,21,030,36*57


































































$GAGSV,1,1,0,*74















































































$PQGSV,1,1,0,*73















































































$GBGSV,1,1,0,*77















































































$GNGSA,A,3,02,05,06,09,12,17,19,25,29,,,,0.9,0.6,0.7,1*30






































$GNGSA,A,3,68,69,70,74,75,83,84,85,,,,,0.9,0.6,0.7,2*37








































$GNVTG,274.3,T,274.3,M,1.8,N,3.4,K,A*33
























































$GNGGA,183049.00,0513.111301,N,02459.207375,W,1,12,0.6,84.0,M,-42.0,M,,*7F





















$GNRMC,183049.00,A,0513.111301,N,02459.207375,W,1.8,274.3,230720,8.5,W,A*24




















$GPGSV,3,1,10,02,68,357,33,04,03,032,28,05,58,216,32,06,41,063,35*77



























$GPGSV,3,2,10,09,23,060,35,12,41,251,32,17,12,130,27,19,30,126,24*7A



























$GPGSV,3,3,10,25,30,291,29,29,12,312,27*70





















































$GLGSV,3,1,09,74,04,233,29,70,33,180,22,76,00,000,25,75,16,286,29*6A



























$GLGSV,3,2,09,69,63,081,34,84,57,046,20,83,14,101,19,85,33,319,31*65



























$GLGSV,3,3,09,68,21,030,35*54


































































$GAGSV,1,1,0,*74















































































$PQGSV,1,1,0,*73















































































$GBGSV,1,1,0,*77















































































$GNGSA,A,3,02,05,06,09,12,17,19,25,29,,,,1.0,0.7,0.7,1*39






































$GNGSA,A,3,68,69,70,74,75,83,84,85,,,,,1.0,0.7,0.7,2*3E








































$GNVTG,273.9,T,273.9,M,2.2,N,4.1,K,A*38
























































$GNGGA,183050.00,0513.111731,N,02459.207464,W,1,12,0.7,84.0,M,-42.0,M,,*76





















$GNRMC,183050.00,A,0513.111731,N,02459.207464,W,2.2,273.9,230720,8.5,W,A*28




















$GPGSV,3,1,10,02,68,357,32,04,03,032,30,05,58,216,32,06,41,063,34*7E



























$GPGSV,3,2,10,09,23,060,34,12,41,251,32,17,12,130,27,19,30,126,28*77



























$GPGSV,3,3,10,25,30,291,27,29,12,312,29*70





















































$GLGSV,3,1,09,74,04,233,30,70,33,180,18,76,00,000,26,75,16,286,30*60



























$GLGSV,3,2,09,69,63,081,33,84,57,046,22,83,14,101,20,85,33,319,34*6F



























$GLGSV,3,3,09,68,21,030,35*54


































































$GAGSV,1,1,0,*74















































































$PQGSV,1,1,0,*73















































































$GBGSV,1,1,0,*77















































































$GNGSA,A,3,02,05,06,09,12,17,19,25,29,,,,1.0,0.7,0.7,1*39






































$GNGSA,A,3,68,69,70,75,83,84,85,,,,,,1.0,0.7,0.7,2*3D










































$GNVTG,78.5,T,78.5,M,6.6,N,12.2,K,A*0C

























































$GNGGA,183051.00,0513.112220,N,02459.205875,W,1,12,0.7,84.0,M,-42.0,M,,*7F





















$GNRMC,183051.00,A,0513.112220,N,02459.205875,W,6.6,78.5,230720,8.5,W,A*14





















$GPGSV,3,1,10,02,68,357,30,04,03,032,29,05,58,216,32,06,41,063,34*74



























$GPGSV,3,2,10,09,23,060,32,12,41,251,32,17,12,130,24,19,30,126,29*73



























$GPGSV,3,3,10,25,30,291,29,29,12,312,30*76





















































$GLGSV,3,1,09,74,04,233,27,70,33,180,20,76,00,000,28,75,16,286,30*63



























$GLGSV,3,2,09,69,63,081,30,84,57,046,20,83,14,101,20,85,33,319,35*6F



























$GLGSV,3,3,09,68,21,030,34*55


































































$GAGSV,1,1,0,*74















































































$PQGSV,1,1,0,*73















































































$GBGSV,1,1,0,*77















































































$GNGSA,A,3,02,05,06,09,12,17,19,25,29,,,,1.0,0.7,0.7,1*39






































$GNGSA,A,3,68,69,70,75,83,84,85,,,,,,1.0,0.7,0.7,2*3D










































$GNVTG,95.0,T,95.0,M,6.2,N,11.4,K,A*0D

























































$GNGGA,183052.00,0513.112273,N,02459.203162,W,1,12,0.7,83.0,M,-42.0,M,,*74





















$GNRMC,183052.00,A,0513.112273,N,02459.203162,W,6.2,95.0,230720,8.5,W,A*1A





















$GPGSV,3,1,10,02,68,357,30,04,03,032,29,05,58,216,33,06,41,063,33*72



























$GPGSV,3,2,10,09,23,060,33,12,41,251,33,17,12,130,26,19,30,126,30*79



























$GPGSV,3,3,10,25,30,291,30,29,12,312,30*7E





















































$GLGSV,3,1,09,74,04,233,28,70,33,180,20,76,00,000,27,75,16,286,29*6B



























$GLGSV,3,2,09,69,63,081,32,84,57,046,20,83,14,101,22,85,33,319,36*6C



























$GLGSV,3,3,09,68,21,030,35*54


































































$GAGSV,1,1,0,*74















































































$PQGSV,1,1,0,*73















































































$GBGSV,1,1,0,*77















































































$GNGSA,A,3,02,05,06,09,12,17,19,25,29,,,,1.0,0.7,0.7,1*39






































$GNGSA,A,3,68,69,70,75,83,84,85,,,,,,1.0,0.7,0.7,2*3D










































$GNVTG,97.3,T,97.3,M,2.5,N,4.7,K,A*39


























































$GNGGA,183053.00,0513.112295,N,02459.202021,W,1,12,0.7,82.0,M,-42.0,M,,*7B





















$GNRMC,183053.00,A,0513.112295,N,02459.202021,W,2.5,97.3,230720,8.5,W,A*16





















$GPGSV,3,1,10,02,68,357,32,04,03,032,30,05,58,216,29,06,41,063,31*71



























$GPGSV,3,2,10,09,23,060,32,12,41,251,33,17,12,130,27,19,30,126,30*79



























$GPGSV,3,3,10,25,30,291,30,29,12,312,27*78





















































$GLGSV,3,1,09,74,04,233,29,70,33,180,24,76,00,000,27,75,16,286,29*6E



























$GLGSV,3,2,09,69,63,081,33,84,57,046,20,83,14,101,22,85,33,319,34*6F



























$GLGSV,3,3,09,68,21,030,35*54


































































$GAGSV,1,1,0,*74















































































$PQGSV,1,1,0,*73















































































$GBGSV,1,1,0,*77















































































$GNGSA,A,3,02,05,06,09,12,17,19,25,29,,,,1.0,0.7,0.7,1*39






































$GNGSA,A,3,68,69,70,75,83,84,85,,,,,,1.0,0.7,0.7,2*3D










































$GNVTG,13.4,T,13.4,M,1.5,N,2.8,K,A*33


























































$GNGGA,183054.00,0513.112471,N,02459.201745,W,1,12,0.7,83.0,M,-42.0,M,,*77





















$GNRMC,183054.00,A,0513.112471,N,02459.201745,W,1.5,13.4,230720,8.5,W,A*13





















$GPGSV,3,1,10,02,68,357,30,04,03,032,27,05,58,216,29,06,41,063,24*71



























$GPGSV,3,2,10,09,23,060,27,12,41,251,34,17,12,130,31,19,30,126,28*74



























$GPGSV,3,3,10,25,30,291,34,29,12,312,32*78





















































$GLGSV,3,1,09,74,04,233,23,70,33,180,22,76,00,000,30,75,16,286,32*6E



























$GLGSV,3,2,09,69,63,081,31,84,57,046,20,83,14,101,17,85,33,319,36*69



























$GLGSV,3,3,09,68,21,030,31*50


































































$GAGSV,1,1,0,*74















































































$PQGSV,1,1,0,*73















































































$GBGSV,1,1,0,*77















































































$GNGSA,A,3,02,05,06,09,12,17,19,25,29,,,,1.0,0.7,0.7,1*39






































$GNGSA,A,3,68,69,70,75,83,84,85,,,,,,1.0,0.7,0.7,2*3D










































$GNVTG,13.5,T,13.5,M,2.0,N,3.6,K,A*3A


























































$GNGGA,183055.00,0513.112910,N,02459.201813,W,1,12,0.7,83.0,M,-42.0,M,,*70





















$GNRMC,183055.00,A,0513.112910,N,02459.201813,W,2.0,13.5,230720,8.5,W,A*13





















$GPGSV,3,1,10,02,68,357,32,04,03,032,30,05,58,216,31,06,41,063,26*7E



























$GPGSV,3,2,10,09,23,060,28,12,41,251,33,17,12,130,33,19,30,126,33*74



























$GPGSV,3,3,10,25,30,291,29,29,12,312,32*74





















































$GLGSV,3,1,09,74,04,233,27,70,33,180,22,76,00,000,32,75,16,286,31*6B



























$GLGSV,3,2,09,69,63,081,30,84,57,046,20,83,14,101,18,85,33,319,31*60



























$GLGSV,3,3,09,68,21,030,33*52


































































$GAGSV,1,1,0,*74















































































$PQGSV,1,1,0,*73















































































$GBGSV,1,1,0,*77















































































$GNGSA,A,3,02,05,06,09,12,17,19,25,29,,,,1.0,0.7,0.7,1*39






































$GNGSA,A,3,68,69,70,75,83,84,85,,,,,,1.0,0.7,0.7,2*3D










































$GNVTG,109.5,T,109.5,M,3.9,N,7.2,K,A*32
























































$GNGGA,183056.00,0513.113240,N,02459.201301,W,1,12,0.7,83.0,M,-42.0,M,,*74





















$GNRMC,183056.00,A,0513.113240,N,02459.201301,W,3.9,109.5,230720,8.5,W,A*25




















$GPGSV,3,1,10,02,68,357,32,04,03,032,30,05,58,216,31,06,41,063,25*7D



























$GPGSV,3,2,10,09,23,060,27,12,41,251,32,17,12,130,28,19,30,126,30*73



























$GPGSV,3,3,10,25,30,291,34,29,12,312,32*78





















































$GLGSV,3,1,09,74,04,233,24,70,33,180,21,76,00,000,32,75,16,286,30*6A



























$GLGSV,3,2,09,69,63,081,29,84,57,046,17,83,14,101,18,85,33,319,38*65



























$GLGSV,3,3,09,68,21,030,34*55


































































$GAGSV,1,1,0,*74















































































$PQGSV,1,1,0,*73















































































$GBGSV,1,1,0,*77















































































$GNGSA,A,3,02,05,06,09,12,17,19,25,29,,,,1.0,0.7,0.7,1*39






































$GNGSA,A,3,68,69,70,75,83,84,85,,,,,,1.0,0.7,0.7,2*3D










































$GNVTG,110.1,T,110.1,M,1.8,N,3.3,K,A*34
























































$GNGGA,183057.00,0513.113218,N,02459.200603,W,1,12,0.7,82.0,M,-42.0,M,,*7F





















$GNRMC,183057.00,A,0513.113218,N,02459.200603,W,1.8,110.1,230720,8.5,W,A*20




















$GPGSV,3,1,10,02,68,357,31,04,03,032,30,05,58,216,31,06,41,063,28*73



























$GPGSV,3,2,10,09,23,060,29,12,41,251,34,17,12,130,29,19,30,126,31*7B



























$GPGSV,3,3,10,25,30,291,32,29,12,312,27*7A





















































$GLGSV,3,1,09,74,04,233,27,70,33,180,21,76,00,000,29,75,16,286,28*6A



























$GLGSV,3,2,09,69,63,081,33,84,57,046,21,83,14,101,18,85,33,319,36*65



























$GLGSV,3,3,09,68,21,030,34*55


































































$GAGSV,1,1,0,*74















































































$PQGSV,1,1,0,*73















































































$GBGSV,1,1,0,*77















































































$GNGSA,A,3,02,05,06,09,12,17,19,25,29,,,,1.0,0.7,0.7,1*39






































$GNGSA,A,3,68,69,70,75,83,84,85,,,,,,1.0,0.7,0.7,2*3D










































$GNVTG,130.3,T,130.3,M,3.1,N,5.8,K,A*32
























































$GNGGA,183058.00,0513.112943,N,02459.200059,W,1,12,0.7,82.0,M,-42.0,M,,*7D





















$GNRMC,183058.00,A,0513.112943,N,02459.200059,W,3.1,130.3,230720,8.5,W,A*29




















$GPGSV,3,1,10,02,68,357,33,04,03,032,31,05,58,216,31,06,41,063,29*71



























$GPGSV,3,2,10,09,23,060,30,12,41,251,33,17,12,130,27,19,30,126,29*73



























$GPGSV,3,3,10,25,30,291,33,29,12,312,29*75





















































$GLGSV,3,1,09,74,04,233,25,70,33,180,21,76,00,000,29,75,16,286,28*68



























$GLGSV,3,2,09,69,63,081,32,84,57,046,19,83,14,101,18,85,33,319,37*6E



























$GLGSV,3,3,09,68,21,030,34*55


































































$GAGSV,1,1,0,*74















































































$PQGSV,1,1,0,*73















































































$GBGSV,1,1,0,*77















































































$GNGSA,A,3,02,05,06,09,12,17,19,25,29,,,,1.0,0.7,0.7,1*39






































$GNGSA,A,3,68,69,70,75,83,84,85,,,,,,1.0,0.7,0.7,2*3D










































$GNVTG,129.1,T,129.1,M,6.4,N,11.8,K,A*07























































$GNGGA,183059.00,0513.112120,N,02459.198791,W,1,12,0.7,82.0,M,-42.0,M,,*70





















$GNRMC,183059.00,A,0513.112120,N,02459.198791,W,6.4,129.1,230720,8.5,W,A*2E




















$GPGSV,3,1,10,02,68,357,32,04,03,032,31,05,58,216,30,06,41,063,30*79



























$GPGSV,3,2,10,09,23,060,32,12,41,251,33,17,12,130,30,19,30,126,30*7F



























$GPGSV,3,3,10,25,30,291,30,29,12,312,28*77





















































$GLGSV,3,1,09,74,04,233,25,70,33,180,22,76,00,000,27,75,16,286,27*6A



























$GLGSV,3,2,09,69,63,081,33,84,57,046,19,83,14,101,15,85,33,319,37*62



























$GLGSV,3,3,09,68,21,030,34*55


































































$GAGSV,1,1,0,*74















































































$PQGSV,1,1,0,*73















































































$GBGSV,1,1,0,*77















































































$GNGSA,A,3,02,05,06,09,12,17,19,25,29,,,,1.0,0.7,0.7,1*39






































$GNGSA,A,3,68,69,70,75,83,84,85,,,,,,1.0,0.7,0.7,2*3D










































$GNVTG,128.8,T,128.8,M,7.9,N,14.6,K,A*00























































$GNGGA,183100.00,0513.110775,N,02459.196904,W,1,12,0.7,82.0,M,-42.0,M,,*75





















$GNRMC,183100.00,A,0513.110775,N,02459.196904,W,7.9,128.8,230720,8.5,W,A*2F




















$GPGSV,3,1,10,02,68,357,32,04,03,032,30,05,58,216,30,06,41,063,28*71



























$GPGSV,3,2,10,09,23,060,31,12,41,251,31,17,12,130,27,19,30,126,26*7F



























$GPGSV,3,3,10,25,30,291,31,29,12,312,30*7F





















































$GLGSV,3,1,09,74,04,233,25,70,33,180,21,76,00,000,28,75,16,286,29*68



























$GLGSV,3,2,09,69,63,081,32,84,57,046,18,83,14,101,15,85,33,319,35*60



























$GLGSV,3,3,09,68,21,030,34*55


































































$GAGSV,1,1,0,*74















































































$PQGSV,1,1,0,*73















































































$GBGSV,1,1,0,*77















































































$GNGSA,A,3,02,05,06,09,12,17,19,25,29,,,,1.0,0.7,0.7,1*39






































$GNGSA,A,3,68,69,70,75,83,84,85,,,,,,1.0,0.7,0.7,2*3D










































$GNVTG,130.3,T,130.3,M,8.4,N,15.6,K,A*03























































$GNGGA,183101.00,0513.109193,N,02459.194777,W,1,12,0.7,82.0,M,-42.0,M,,*7A





















$GNRMC,183101.00,A,0513.109193,N,02459.194777,W,8.4,130.3,230720,8.5,W,A*20




















$GPGSV,3,1,10,02,68,357,31,04,03,032,31,05,58,216,31,06,41,063,28*72



























$GPGSV,3,2,10,09,23,060,31,12,41,251,33,17,12,130,29,19,30,126,31*75



























$GPGSV,3,3,10,25,30,291,32,29,12,312,30*7C





















































$GLGSV,3,1,09,74,04,233,25,70,33,180,21,76,00,000,30,75,16,286,31*68



























$GLGSV,3,2,09,69,63,081,31,84,57,046,21,83,14,101,18,85,33,319,37*66



























$GLGSV,3,3,09,68,21,030,34*55


































































$GAGSV,1,1,0,*74















































































$PQGSV,1,1,0,*73















































































$GBGSV,1,1,0,*77















































































$GNGSA,A,3,02,05,06,09,12,17,19,25,29,,,,1.0,0.7,0.7,1*39






































$GNGSA,A,3,68,69,70,75,83,84,85,,,,,,1.0,0.7,0.7,2*3D










































$GNVTG,133.1,T,133.1,M,8.4,N,15.6,K,A*03























































$GNGGA,183102.00,0513.107539,N,02459.192722,W,1,12,0.7,82.0,M,-42.0,M,,*75





















$GNRMC,183102.00,A,0513.107539,N,02459.192722,W,8.4,133.1,230720,8.5,W,A*2E




















$GPGSV,3,1,10,02,68,357,31,04,03,032,32,05,58,216,31,06,41,063,27*7E



























$GPGSV,3,2,10,09,23,060,32,12,41,251,34,17,12,130,29,19,30,126,30*70



























$GPGSV,3,3,10,25,30,291,31,29,12,312,31*7E





















































$GLGSV,3,1,09,74,04,233,26,70,33,180,23,76,00,000,30,75,16,286,29*60



























$GLGSV,3,2,09,69,63,081,32,84,57,046,19,83,14,101,18,85,33,319,38*61



























$GLGSV,3,3,09,68,21,030,34*55


































































$GAGSV,1,1,0,*74















































































$PQGSV,1,1,0,*73















































































$GBGSV,1,1,0,*77















































































$GNGSA,A,3,02,05,06,09,12,17,19,25,29,,,,1.0,0.7,0.7,1*39






































$GNGSA,A,3,68,69,70,75,84,85,,,,,,,1.0,0.7,0.7,2*36












































$GNVTG,137.0,T,137.0,M,7.9,N,14.7,K,A*01























































$GNGGA,183103.00,0513.105854,N,02459.190867,W,1,12,0.7,82.0,M,-42.0,M,,*7C





















$GNRMC,183103.00,A,0513.105854,N,02459.190867,W,7.9,137.0,230720,8.5,W,A*20




















$GPGSV,3,1,10,02,68,357,30,04,03,032,31,05,58,216,30,06,41,063,28*72



























$GPGSV,3,2,10,09,23,060,31,12,41,251,32,17,12,130,24,19,30,126,29*70



























$GPGSV,3,3,10,25,30,291,31,29,12,312,31*7E





















































$GLGSV,3,1,09,74,04,233,25,70,33,180,21,76,00,000,30,75,16,286,30*69



























$GLGSV,3,2,09,69,63,081,32,84,57,046,19,83,14,101,17,85,33,319,36*60



























$GLGSV,3,3,09,68,21,030,34*55


































































$GAGSV,1,1,0,*74















































































$PQGSV,1,1,0,*73















































































$GBGSV,1,1,0,*77















































































$GNGSA,A,3,02,05,06,09,12,17,19,25,29,,,,1.0,0.7,0.7,1*39






































$GNGSA,A,3,68,69,70,75,84,85,,,,,,,1.0,0.7,0.7,2*36












































$GNVTG,140.0,T,140.0,M,7.4,N,13.8,K,A*04























































$GNGGA,183104.00,0513.104220,N,02459.189316,W,1,12,0.7,82.0,M,-42.0,M,,*76





















$GNRMC,183104.00,A,0513.104220,N,02459.189316,W,7.4,140.0,230720,8.5,W,A*27




















$GPGSV,3,1,10,02,68,357,30,04,03,032,31,05,58,216,29,06,41,063,28*7A



























$GPGSV,3,2,10,09,23,060,29,12,41,251,31,17,12,130,28,19,30,126,28*77



























$GPGSV,3,3,10,25,30,291,29,29,12,312,28*7F





















































$GLGSV,3,1,09,74,04,233,25,70,33,180,20,76,00,000,29,75,16,286,31*61



























$GLGSV,3,2,09,69,63,081,30,84,57,046,19,83,14,101,17,85,33,319,36*62



























$GLGSV,3,3,09,68,21,030,33*52


































































$GAGSV,1,1,0,*74















































































$PQGSV,1,1,0,*73















































































$GBGSV,1,1,0,*77















































































$GNGSA,A,3,02,05,06,09,12,17,19,25,29,,,,1.0,0.7,0.7,1*39






































$GNGSA,A,3,68,69,70,75,84,85,,,,,,,1.0,0.7,0.7,2*36












































$GNVTG,141.2,T,141.2,M,7.7,N,14.2,K,A*0A























































$GNGGA,183105.00,0513.102548,N,02459.187809,W,1,12,0.7,82.0,M,-42.0,M,,*73





















$GNRMC,183105.00,A,0513.102548,N,02459.187809,W,7.7,141.2,230720,8.5,W,A*22




















$GPGSV,3,1,10,02,68,357,32,04,03,032,31,05,58,216,31,06,41,063,27*7E



























$GPGSV,3,2,10,09,23,060,30,12,41,251,34,17,12,130,30,19,30,126,24*7F



























$GPGSV,3,3,10,25,30,291,32,29,12,312,33*7F





















































$GLGSV,3,1,09,74,04,233,26,70,33,180,22,76,00,000,30,75,16,286,25*6D



























$GLGSV,3,2,09,69,63,081,32,84,57,046,17,83,14,101,18,85,33,319,37*60



























$GLGSV,3,3,09,68,21,030,34*55


































































$GAGSV,1,1,0,*74















































































