$GNGBH,151904.59,0513.146159,N,02459.535271,W,1,11,0.9,61.0,M,-42.0,M,,*75





















$GNRMC,154004.00,A,0513.146159,N,02459.535271,W,0.0,,200920,8.4,W,A*00

























$GPGSV,3,1,10,02,60,067,27,05,81,334,26,06,17,091,28,09,07,036,22*7F



























$GPGSV,3,2,10,12,17,220,33,13,26,158,30,15,09,191,29,19,03,143,27*72



























$GPGSV,3,3,10,25,22,257,29,29,39,312,29*7E





















































$GLGSV,2,1,07,66,23,202,34,88,64,355,27,87,56,095,24,81,17,319,30*62



























$GLGSV,2,2,07,72,39,035,29,80,00,000,,79,04,300,*51












































$GAGSV,1,1,0,*74















































































$PQGSV,1,1,0,*73















































































$GBGSV,1,1,0,*77















































































$GNGSA,A,3,02,05,06,12,13,15,25,29,,,,,1.3,0.9,0.9,1*3B








































$GNGSA,A,2,66,87,,,,,,,,,,,1.3,0.9,0.9,2*3E




















































$GNVTG,,T,,M,0.0,N,0.0,K,A*3D


































































$GNGGA,154005.00,0513.146386,N,02459.535349,W,1,10,0.9,61.0,M,-42.0,M,,*7F





















$GNRMC,154005.00,A,0513.146386,N,02459.535349,W,0.0,,200920,8.4,W,A*0B

























$GPGSV,3,1,10,02,60,067,28,05,81,334,25,06,17,091,30,09,07,036,23*7B



























$GPGSV,3,2,10,12,17,220,33,13,26,158,30,15,09,191,29,19,03,143,26*73



























$GPGSV,3,3,10,25,22,257,28,29,39,312,27*71





















































$GLGSV,2,1,07,66,23,202,34,88,64,355,26,87,56,095,26,81,17,319,26*66



























$GLGSV,2,2,07,72,39,035,21,80,00,000,,79,04,300,*59












































$GAGSV,1,1,0,*74















































































$PQGSV,1,1,0,*73















































































$GBGSV,1,1,0,*77















































































$GNGSA,A,3,02,05,06,12,13,15,25,29,,,,,1.2,0.9,0.8,1*3B








































$GNGSA,A,2,66,87,,,,,,,,,,,1.2,0.9,0.8,2*3E




















































$GNVTG,,T,,M,0.0,N,0.0,K,A*3D


































































$GNGGA,154006.00,0513.146370,N,02459.535301,W,1,10,0.9,61.0,M,-42.0,M,,*79





















$GNRMC,154006.00,A,0513.146370,N,02459.535301,W,0.0,,200920,8.4,W,A*0D

























$GPGSV,3,1,10,02,60,067,26,05,81,334,24,06,17,091,30,09,07,036,22*75



























$GPGSV,3,2,10,12,17,220,33,13,26,158,30,15,09,191,29,19,03,143,26*73



























$GPGSV,3,3,10,25,22,257,29,29,39,312,27*70





















































$GLGSV,2,1,07,66,23,202,34,88,64,355,26,87,56,095,26,81,17,319,26*66



























$GLGSV,2,2,07,72,39,035,24,80,00,000,,79,04,300,*5C












































$GAGSV,1,1,0,*74















































































$PQGSV,1,1,0,*73















































































$GBGSV,1,1,0,*77















































































$GNGSA,A,3,02,05,06,12,13,15,25,29,,,,,1.2,0.9,0.8,1*3B








































$GNGSA,A,2,66,72,87,,,,,,,,,,1.2,0.9,0.8,2*3B


















































$GNVTG,,T,,M,0.0,N,0.0,K,A*3D


































































$GNGGA,154007.00,0513.146602,N,02459.535199,W,1,11,0.9,60.0,M,-42.0,M,,*7B





















$GNRMC,154007.00,A,0513.146602,N,02459.535199,W,0.0,,200920,8.4,W,A*0F

























$GPGSV,3,1,10,02,60,067,33,05,81,334,33,06,17,091,32,09,07,036,24*73



























$GPGSV,3,2,10,12,17,220,36,13,26,158,36,15,09,191,36,19,03,143,30*79



























$GPGSV,3,3,10,25,22,257,31,29,39,312,34*7B





















































$GLGSV,2,1,07,66,23,202,34,88,64,355,32,87,56,095,35,81,17,319,31*67



























$GLGSV,2,2,07,72,39,035,21,80,00,000,,79,04,300,*59












































$GAGSV,1,1,0,*74















































































$PQGSV,1,1,0,*73















































































$GBGSV,1,1,0,*77















































































$GNGSA,A,3,02,05,06,12,13,15,25,29,,,,,1.1,0.8,0.8,1*39








































$GNGSA,A,2,66,72,87,,,,,,,,,,1.1,0.8,0.8,2*39


















































$GNVTG,,T,,M,0.0,N,0.0,K,A*3D


































































$GNGGA,154008.00,0513.146788,N,02459.535423,W,1,11,0.8,60.0,M,-42.0,M,,*72





















$GNRMC,154008.00,A,0513.146788,N,02459.535423,W,0.0,,200920,8.4,W,A*07

























$GPGSV,3,1,10,02,60,067,29,05,81,334,32,06,17,091,32,09,07,036,22*7F



























$GPGSV,3,2,10,12,17,220,36,13,26,158,38,15,09,191,36,19,03,143,31*76



























$GPGSV,3,3,10,25,22,257,25,29,39,312,34*7E





















































$GLGSV,2,1,07,66,23,202,32,88,64,357,28,87,56,095,34,81,17,319,30*68



























$GLGSV,2,2,07,72,39,035,29,80,00,000,,79,04,300,*51












































$GAGSV,1,1,0,*74















































































$PQGSV,1,1,0,*73















































































$GBGSV,1,1,0,*77















































































$GNGSA,A,3,02,05,06,12,13,15,25,29,,,,,1.1,0.8,0.8,1*39








































$GNGSA,A,3,66,72,81,87,88,,,,,,,,1.1,0.8,0.8,2*31














































$GNVTG,300.7,T,300.7,M,0.5,N,0.9,K,A*31
























































$GNGGA,154009.00,0513.147073,N,02459.535159,W,1,12,0.8,59.0,M,-42.0,M,,*70





















$GNRMC,154009.00,A,0513.147073,N,02459.535159,W,0.5,300.7,200920,8.4,W,A*23




















$GPGSV,3,1,10,02,60,067,29,05,81,334,32,06,17,091,25,09,07,036,20*7B



























$GPGSV,3,2,10,12,17,220,35,13,26,158,33,15,09,191,29,19,03,143,26*76



























$GPGSV,3,3,10,25,22,257,29,29,39,312,30*76





















































$GLGSV,2,1,07,66,23,202,32,88,64,357,29,87,56,095,33,81,17,319,30*6E



























$GLGSV,2,2,07,72,39,035,22,80,00,000,,79,04,300,*5A












































$GAGSV,1,1,0,*74















































































$PQGSV,1,1,0,*73















































































$GBGSV,1,1,0,*77















































































$GNGSA,A,3,02,05,06,12,13,15,25,29,,,,,1.1,0.8,0.8,1*39








































$GNGSA,A,3,66,72,81,87,88,,,,,,,,1.1,0.8,0.8,2*31














































$GNVTG,14.5,T,14.5,M,1.0,N,1.8,K,A*35


























































$GNGGA,154010.00,0513.147467,N,02459.535336,W,1,12,0.8,59.0,M,-42.0,M,,*72





















$GNRMC,154010.00,A,0513.147467,N,02459.535336,W,1.0,14.5,200920,8.4,W,A*11





















$GPGSV,3,1,10,02,60,067,29,05,81,334,29,06,17,091,18,09,07,036,18*74



























$GPGSV,3,2,10,12,17,220,30,13,26,158,24,15,09,191,20,19,03,143,18*71



























$GPGSV,3,3,10,25,22,257,23,29,39,312,30*7C





















































$GLGSV,2,1,07,66,23,202,22,88,64,357,27,87,56,095,27,81,17,319,21*64



























$GLGSV,2,2,07,72,39,035,28,80,00,000,,79,04,300,*50












































$GAGSV,1,1,0,*74















































































$PQGSV,1,1,0,*73















































































$GBGSV,1,1,0,*77















































































$GNGSA,A,3,02,05,06,12,13,15,25,29,,,,,1.1,0.8,0.8,1*39








































$GNGSA,A,3,66,72,81,87,88,,,,,,,,1.1,0.8,0.8,2*31














































$GNVTG,,T,,M,0.0,N,0.0,K,A*3D


































































$GNGGA,154011.00,0513.147701,N,02459.535850,W,1,12,0.8,58.0,M,-42.0,M,,*7A





















$GNRMC,154011.00,A,0513.147701,N,02459.535850,W,0.0,,200920,8.4,W,A*07

























$GPGSV,3,1,10,02,60,067,26,05,81,334,27,06,17,091,27,09,07,036,23*71



























$GPGSV,3,2,10,12,17,220,30,13,26,158,33,15,09,191,33,19,03,143,27*79



























$GPGSV,3,3,10,25,22,257,23,29,39,312,30*7C





















































$GLGSV,2,1,07,66,23,202,29,88,64,357,27,87,56,095,25,81,17,319,24*68



























$GLGSV,2,2,07,72,39,035,24,80,00,000,,79,04,300,*5C












































$GAGSV,1,1,0,*74















































































$PQGSV,1,1,0,*73















































































$GBGSV,1,1,0,*77















































































$GNGSA,A,3,02,05,06,12,13,15,25,29,,,,,1.1,0.8,0.8,1*39








































$GNGSA,A,3,66,72,81,87,88,,,,,,,,1.1,0.8,0.8,2*31














































$GNVTG,,T,,M,0.0,N,0.0,K,A*3D


































































$GNGGA,154012.00,0513.147720,N,02459.535993,W,1,12,0.8,58.0,M,-42.0,M,,*74





















$GNRMC,154012.00,A,0513.147720,N,02459.535993,W,0.0,,200920,8.4,W,A*09

























$GPGSV,3,1,10,02,60,067,26,05,81,334,27,06,17,091,25,09,07,036,23*73



























$GPGSV,3,2,10,12,17,220,24,13,26,158,20,15,09,191,18,19,03,143,27*77



























$GPGSV,3,3,10,25,22,257,19,29,39,312,28*7C





















































$GLGSV,2,1,07,66,23,202,20,88,64,357,27,87,56,095,29,81,17,319,22*6B



























$GLGSV,2,2,07,72,39,035,21,80,00,000,,79,04,300,*59












































$GAGSV,1,1,0,*74















































































$PQGSV,1,1,0,*73















































































$GBGSV,1,1,0,*77















































































$GNGSA,A,3,02,05,06,12,13,15,25,29,,,,,1.1,0.8,0.8,1*39








































$GNGSA,A,3,66,72,81,87,88,,,,,,,,1.1,0.8,0.8,2*31














































$GNVTG,,T,,M,0.0,N,0.0,K,A*3D


































































$GNGGA,154013.00,0513.147736,N,02459.535947,W,1,12,0.8,57.0,M,-42.0,M,,*74





















$GNRMC,154013.00,A,0513.147736,N,02459.535947,W,0.0,,200920,8.4,W,A*06

























$GPGSV,3,1,10,02,60,067,22,05,81,334,27,06,17,091,26,09,07,036,20*77



























$GPGSV,3,2,10,12,17,220,31,13,26,158,31,15,09,191,31,19,03,143,17*7B



























$GPGSV,3,3,10,25,22,257,19,29,39,312,28*7C





















































$GLGSV,2,1,07,66,23,202,27,88,64,357,25,87,56,095,27,81,17,319,21*63



























$GLGSV,2,2,07,72,39,035,18,80,00,000,,79,04,300,*53












































$GAGSV,1,1,0,*74















































































$PQGSV,1,1,0,*73















































































$GBGSV,1,1,0,*77















































































$GNGSA,A,3,02,05,06,12,13,15,25,29,,,,,1.1,0.8,0.8,1*39








































$GNGSA,A,3,66,72,81,87,88,,,,,,,,1.1,0.8,0.8,2*31














































$GNVTG,,T,,M,0.0,N,0.0,K,A*3D


































































$GNGGA,154014.00,0513.147642,N,02459.535779,W,1,12,0.8,57.0,M,-42.0,M,,*72





















$GNRMC,154014.00,A,0513.147642,N,02459.535779,W,0.0,,200920,8.4,W,A*00

























$GPGSV,3,1,10,02,60,067,30,05,81,334,27,06,17,091,36,09,07,036,28*7D



























$GPGSV,3,2,10,12,17,220,34,13,26,158,34,15,09,191,34,19,03,143,31*7A



























$GPGSV,3,3,10,25,22,257,22,29,39,312,32*7F





















































$GLGSV,2,1,07,66,23,202,33,88,64,357,26,87,56,095,35,81,17,319,24*63



























$GLGSV,2,2,07,72,39,035,21,80,00,000,,79,04,300,*59












































$GAGSV,1,1,0,*74















































































$PQGSV,1,1,0,*73















































































$GBGSV,1,1,0,*77















































































$GNGSA,A,3,02,05,06,12,13,15,25,29,,,,,1.1,0.8,0.8,1*39








































$GNGSA,A,3,66,72,81,87,88,,,,,,,,1.1,0.8,0.8,2*31














































$GNVTG,,T,,M,0.0,N,0.0,K,A*3D


































































$GNGGA,154015.00,0513.147881,N,02459.535603,W,1,12,0.8,57.0,M,-42.0,M,,*7E





















$GNRMC,154015.00,A,0513.147881,N,02459.535603,W,0.0,,200920,8.4,W,A*0C

























$GPGSV,3,1,10,02,60,067,27,05,81,334,25,06,17,091,29,09,07,036,21*7E



























$GPGSV,3,2,10,12,17,220,26,13,26,158,29,15,09,191,30,19,03,143,26*77



























$GPGSV,3,3,10,25,22,257,21,29,39,312,29*76





















































$GLGSV,2,1,07,66,23,202,29,88,64,357,25,87,56,095,29,81,17,319,22*60



























$GLGSV,2,2,07,72,39,035,24,80,00,000,,79,04,300,*5C












































$GAGSV,1,1,0,*74















































































$PQGSV,1,1,0,*73















































































$GBGSV,1,1,0,*77















































































$GNGSA,A,3,02,05,06,12,13,15,25,29,,,,,1.1,0.8,0.8,1*39








































$GNGSA,A,3,66,72,81,87,88,,,,,,,,1.1,0.8,0.8,2*31














































$GNVTG,,T,,M,0.0,N,0.0,K,A*3D


































































$GNGGA,154016.00,0513.147934,N,02459.535613,W,1,12,0.8,57.0,M,-42.0,M,,*73





















$GNRMC,154016.00,A,0513.147934,N,02459.535613,W,0.0,,200920,8.4,W,A*01

























$GPGSV,3,1,10,02,60,067,19,05,81,334,24,06,17,091,25,09,07,036,21*7E



























$GPGSV,3,2,10,12,17,220,25,13,26,158,17,15,09,191,20,19,03,143,26*78



























$GPGSV,3,3,10,25,22,257,22,29,39,312,24*78





















































$GLGSV,2,1,07,66,23,202,21,88,64,357,26,87,56,095,29,81,17,319,19*63



























$GLGSV,2,2,07,72,39,035,24,80,00,000,,79,04,300,*5C












































$GAGSV,1,1,0,*74















































































$PQGSV,1,1,0,*73















































































$GBGSV,1,1,0,*77















































































$GNGSA,A,3,02,05,06,12,13,15,25,29,,,,,1.1,0.8,0.8,1*39








































$GNGSA,A,3,66,72,81,87,88,,,,,,,,1.1,0.8,0.8,2*31














































$GNVTG,,T,,M,0.0,N,0.0,K,A*3D


































































$GNGGA,154017.00,0513.147879,N,02459.535597,W,1,12,0.8,57.0,M,-42.0,M,,*75





















$GNRMC,154017.00,A,0513.147879,N,02459.535597,W,0.0,,200920,8.4,W,A*07

























$GPGSV,3,1,10,02,60,067,19,05,81,334,26,06,17,091,24,09,07,036,21*7D



























$GPGSV,3,2,10,12,17,220,22,13,26,158,18,15,09,191,18,19,03,143,26*7B



























$GPGSV,3,3,10,25,22,257,22,29,39,312,19*76





















































$GLGSV,2,1,07,66,23,202,22,88,64,357,27,87,56,095,29,81,17,319,17*6F



























$GLGSV,2,2,07,72,39,035,24,80,00,000,,79,04,300,*5C












































$GAGSV,1,1,0,*74















































































$PQGSV,1,1,0,*73















































































$GBGSV,1,1,0,*77















































































$GNGSA,A,3,02,05,06,12,13,15,25,29,,,,,1.1,0.8,0.8,1*39








































$GNGSA,A,3,66,72,81,87,88,,,,,,,,1.1,0.8,0.8,2*31














































$GNVTG,,T,,M,0.0,N,0.0,K,A*3D


































































$GNGGA,154018.00,0513.147850,N,02459.535622,W,1,12,0.8,57.0,M,-42.0,M,,*7C





















$GNRMC,154018.00,A,0513.147850,N,02459.535622,W,0.0,,200920,8.4,W,A*0E

























$GPGSV,3,1,10,02,60,067,18,05,81,334,27,06,17,091,24,09,07,036,21*7D



























$GPGSV,3,2,10,12,17,220,19,13,26,158,19,15,09,191,19,19,03,143,26*73



























$GPGSV,3,3,10,25,22,257,20,29,39,312,19*74





















































$GLGSV,2,1,07,66,23,202,20,88,64,357,28,87,56,095,16,81,17,319,17*6E



























$GLGSV,2,2,07,72,39,035,18,80,00,000,,79,04,300,*53












































$GAGSV,1,1,0,*74















































































$PQGSV,1,1,0,*73















































































$GBGSV,1,1,0,*77















































































$GNGSA,A,3,02,05,06,12,13,15,25,29,,,,,1.1,0.8,0.8,1*39








































$GNGSA,A,3,66,72,81,87,88,,,,,,,,1.1,0.8,0.8,2*31














































$GNVTG,,T,,M,0.0,N,0.0,K,A*3D


































































$GNGGA,154019.00,0513.147842,N,02459.535608,W,1,12,0.8,57.0,M,-42.0,M,,*76





















$GNRMC,154019.00,A,0513.147842,N,02459.535608,W,0.0,,200920,8.4,W,A*04

























$GPGSV,3,1,10,02,60,067,18,05,81,334,22,06,17,091,22,09,07,036,21*7E



























$GPGSV,3,2,10,12,17,220,29,13,26,158,26,15,09,191,22,19,03,143,14*75



























$GPGSV,3,3,10,25,22,257,21,29,39,312,19*75





















































$GLGSV,2,1,07,66,23,202,29,88,64,357,24,87,56,095,19,81,17,319,17*64



























$GLGSV,2,2,07,72,39,035,21,80,00,000,,79,04,300,*59












































$GAGSV,1,1,0,*74















































































$PQGSV,1,1,0,*73















































































$GBGSV,1,1,0,*77















































































$GNGSA,A,3,02,05,06,12,13,15,25,29,,,,,1.1,0.8,0.8,1*39








































$GNGSA,A,3,66,72,81,87,88,,,,,,,,1.1,0.8,0.8,2*31














































$GNVTG,,T,,M,0.0,N,0.0,K,A*3D


































































$GNGGA,154020.00,0513.147874,N,02459.535599,W,1,12,0.8,58.0,M,-42.0,M,,*7D





















$GNRMC,154020.00,A,0513.147874,N,02459.535599,W,0.0,,200920,8.4,W,A*00

























$GPGSV,3,1,10,02,60,067,18,05,81,334,20,06,17,091,18,09,07,036,21*75



























$GPGSV,3,2,10,12,17,220,26,13,26,158,25,15,09,191,22,19,03,143,14*79



























$GPGSV,3,3,10,25,22,257,20,29,39,312,19*74





















































$GLGSV,2,1,07,66,23,202,27,88,64,357,24,87,56,095,21,81,17,319,18*6E



























$GLGSV,2,2,07,72,39,035,17,80,00,000,,79,04,300,*5C












































$GAGSV,1,1,0,*74















































































$PQGSV,1,1,0,*73















































































$GBGSV,1,1,0,*77















































































$GNGSA,A,3,02,05,06,12,13,15,25,29,,,,,1.1,0.8,0.8,1*39








































$GNGSA,A,3,66,72,81,87,88,,,,,,,,1.1,0.8,0.8,2*31














































$GNVTG,,T,,M,0.0,N,0.0,K,A*3D


































































$GNGGA,154021.00,0513.147816,N,02459.535604,W,1,12,0.8,58.0,M,-42.0,M,,*7F





















$GNRMC,154021.00,A,0513.147816,N,02459.535604,W,0.0,,200920,8.4,W,A*02

























$GPGSV,3,1,10,02,60,067,28,05,81,334,24,06,17,091,25,09,07,036,21*7C



























$GPGSV,3,2,10,12,17,220,27,13,26,158,29,15,09,191,31,19,03,143,16*74



























$GPGSV,3,3,10,25,22,257,21,29,39,312,22*7D





















































$GLGSV,2,1,07,66,23,202,30,88,64,357,22,87,56,095,33,81,17,319,19*6C



























$GLGSV,2,2,07,72,39,035,21,80,00,000,,79,04,300,*59












































$GAGSV,1,1,0,*74















































































$PQGSV,1,1,0,*73















































































$GBGSV,1,1,0,*77















































































$GNGSA,A,3,02,05,06,12,13,15,25,29,,,,,1.1,0.8,0.8,1*39








































$GNGSA,A,3,66,72,81,87,88,,,,,,,,1.1,0.8,0.8,2*31














































$GNVTG,,T,,M,0.0,N,0.0,K,A*3D


































































$GNGGA,154022.00,0513.147968,N,02459.535631,W,1,12,0.8,57.0,M,-42.0,M,,*7D





















$GNRMC,154022.00,A,0513.147968,N,02459.535631,W,0.0,,200920,8.4,W,A*0F

























$GPGSV,3,1,10,02,60,067,28,05,81,334,28,06,17,091,27,09,07,036,20*73



























$GPGSV,3,2,10,12,17,220,26,13,26,158,26,15,09,191,31,19,03,143,21*7E



























$GPGSV,3,3,10,25,22,257,23,29,39,312,32*7E





















































$GLGSV,2,1,07,66,23,202,28,88,64,357,30,87,56,095,29,81,17,319,27*60



























$GLGSV,2,2,07,72,39,035,30,80,00,000,,79,04,300,*59












































$GAGSV,1,1,0,*74















































































$PQGSV,1,1,0,*73















































































$GBGSV,1,1,0,*77















































































$GNGSA,A,3,02,05,06,12,13,15,25,29,,,,,1.1,0.8,0.8,1*39








































$GNGSA,A,3,66,72,81,87,88,,,,,,,,1.1,0.8,0.8,2*31














































$GNVTG,,T,,M,0.0,N,0.0,K,A*3D


































































$GNGGA,154023.00,0513.147958,N,02459.535631,W,1,12,0.8,57.0,M,-42.0,M,,*7F





















$GNRMC,154023.00,A,0513.147958,N,02459.535631,W,0.0,,200920,8.4,W,A*0D

























$GPGSV,3,1,10,02,60,067,29,05,81,334,29,06,17,091,25,09,07,036,21*70



























$GPGSV,3,2,10,12,17,220,24,13,26,158,30,15,09,191,23,19,03,143,20*79



























$GPGSV,3,3,10,25,22,257,22,29,39,312,30*7D





















































$GLGSV,2,1,07,66,23,202,25,88,64,357,27,87,56,095,30,81,17,319,24*60



























$GLGSV,2,2,07,72,39,035,29,80,00,000,,79,04,300,*51












































$GAGSV,1,1,0,*74















































































$PQGSV,1,1,0,*73















































































$GBGSV,1,1,0,*77















































































$GNGSA,A,3,02,05,06,12,13,15,25,29,,,,,1.1,0.8,0.8,1*39








































$GNGSA,A,3,66,72,81,87,88,,,,,,,,1.1,0.8,0.8,2*31














































$GNVTG,,T,,M,0.0,N,0.0,K,A*3D


































































$GNGGA,154024.00,0513.147999,N,02459.535637,W,1,12,0.8,57.0,M,-42.0,M,,*73





















$GNRMC,154024.00,A,0513.147999,N,02459.535637,W,0.0,,200920,8.4,W,A*01

























$GPGSV,3,1,10,02,60,067,32,05,81,334,30,06,17,091,30,09,07,036,21*76



























$GPGSV,3,2,10,12,17,220,25,13,26,158,33,15,09,191,24,19,03,143,22*7E



























$GPGSV,3,3,10,25,22,257,26,29,39,312,28*70





















































$GLGSV,2,1,07,66,23,202,27,88,64,357,28,87,56,095,29,81,17,319,27*66



























$GLGSV,2,2,07,72,39,035,31,80,00,000,,79,04,300,*58












































$GAGSV,1,1,0,*74















































































$PQGSV,1,1,0,*73















































































$GBGSV,1,1,0,*77















































































$GNGSA,A,3,02,05,06,12,13,15,25,29,,,,,1.1,0.8,0.8,1*39








































$GNGSA,A,3,66,72,81,87,88,,,,,,,,1.1,0.8,0.8,2*31














































$GNVTG,,T,,M,0.0,N,0.0,K,A*3D


































































$GNGGA,154025.00,0513.147990,N,02459.535643,W,1,12,0.8,57.0,M,-42.0,M,,*78





















$GNRMC,154025.00,A,0513.147990,N,02459.535643,W,0.0,,200920,8.4,W,A*0A

























$GPGSV,3,1,10,02,60,067,30,05,81,334,26,06,17,091,29,09,07,036,24*7E



























$GPGSV,3,2,10,12,17,220,27,13,26,158,34,15,09,191,25,19,03,143,25*7D



























$GPGSV,3,3,10,25,22,257,25,29,39,312,30*7A





















































$GLGSV,2,1,07,66,23,202,29,88,64,357,25,87,56,095,28,81,17,319,28*6B



























$GLGSV,2,2,07,72,39,035,34,80,00,000,,79,04,300,*5D












































$GAGSV,1,1,0,*74















































































$PQGSV,1,1,0,*73















































































$GBGSV,1,1,0,*77















































































$GNGSA,A,3,02,05,06,12,13,15,25,29,,,,,1.1,0.8,0.8,1*39








































$GNGSA,A,3,66,72,81,87,88,,,,,,,,1.1,0.8,0.8,2*31














































$GNVTG,,T,,M,0.0,N,0.0,K,A*3D


































































$GNGGA,154026.00,0513.147991,N,02459.535643,W,1,12,0.8,57.0,M,-42.0,M,,*7A





















$GNRMC,154026.00,A,0513.147991,N,02459.535643,W,0.0,,200920,8.4,W,A*08

























$GPGSV,3,1,10,02,60,067,32,05,81,334,27,06,17,091,30,09,07,036,23*72



























$GPGSV,3,2,10,12,17,220,27,13,26,158,35,15,09,191,24,19,03,143,24*7C



























$GPGSV,3,3,10,25,22,257,27,29,39,312,30*78





















































$GLGSV,2,1,07,66,23,202,27,88,64,357,26,87,56,095,29,81,17,319,31*6F



























$GLGSV,2,2,07,72,39,035,33,80,00,000,,79,04,300,*5A












































$GAGSV,1,1,0,*74















































































$PQGSV,1,1,0,*73















































































$GBGSV,1,1,0,*77















































































$GNGSA,A,3,02,05,06,12,13,15,25,29,,,,,1.1,0.8,0.8,1*39








































$GNGSA,A,3,66,72,81,87,88,,,,,,,,1.1,0.8,0.8,2*31














































$GNVTG,,T,,M,0.0,N,0.0,K,A*3D


































































$GNGGA,154027.00,0513.147992,N,02459.535643,W,1,12,0.8,57.0,M,-42.0,M,,*78





















$GNRMC,154027.00,A,0513.147992,N,02459.535643,W,0.0,,200920,8.4,W,A*0A

























$GPGSV,3,1,10,02,60,067,31,05,81,334,29,06,17,091,31,09,07,036,21*7C



























$GPGSV,3,2,10,12,17,220,26,13,26,158,33,15,09,191,24,19,03,143,20*7F



























$GPGSV,3,3,10,25,22,257,27,29,39,312,32*7A





















































$GLGSV,2,1,07,66,23,202,28,88,64,357,28,87,56,095,29,81,17,319,32*6D



























$GLGSV,2,2,07,72,39,035,31,80,00,000,,79,04,300,*58












































$GAGSV,1,1,0,*74















































































$PQGSV,1,1,0,*73















































































$GBGSV,1,1,0,*77















































































$GNGSA,A,3,02,05,06,12,13,15,25,29,,,,,1.1,0.8,0.8,1*39








































$GNGSA,A,3,66,72,81,87,88,,,,,,,,1.1,0.8,0.8,2*31














































$GNVTG,,T,,M,0.0,N,0.0,K,A*3D


































































$GNGGA,154028.00,0513.147988,N,02459.535642,W,1,12,0.8,57.0,M,-42.0,M,,*7D





















$GNRMC,154028.00,A,0513.147988,N,02459.535642,W,0.0,,200920,8.4,W,A*0F

























$GPGSV,3,1,10,02,60,067,28,05,81,334,26,06,17,091,29,09,07,036,18*78



























$GPGSV,3,2,10,12,17,220,24,13,26,158,30,15,09,191,21,19,03,143,20*7B



























$GPGSV,3,3,10,25,22,257,25,29,39,312,30*7A





















































$GLGSV,2,1,07,66,23,202,28,88,64,357,28,87,56,095,28,81,17,319,33*6D



























$GLGSV,2,2,07,72,39,035,30,80,00,000,,79,04,300,*59












































$GAGSV,1,1,0,*74















































































$PQGSV,1,1,0,*73















































































$GBGSV,1,1,0,*77















































































$GNGSA,A,3,02,05,06,12,13,15,25,29,,,,,1.1,0.8,0.8,1*39








































$GNGSA,A,3,66,72,81,87,88,,,,,,,,1.1,0.8,0.8,2*31














































$GNVTG,,T,,M,0.0,N,0.0,K,A*3D


































































$GNGGA,154029.00,0513.147985,N,02459.535644,W,1,12,0.8,57.0,M,-42.0,M,,*77





















$GNRMC,154029.00,A,0513.147985,N,02459.535644,W,0.0,,200920,8.4,W,A*05

























$GPGSV,3,1,10,02,60,067,28,05,81,334,26,06,17,091,29,09,07,036,17*77



























$GPGSV,3,2,10,12,17,220,24,13,26,158,31,15,09,191,21,19,03,143,17*7E



























$GPGSV,3,3,10,25,22,257,27,29,39,312,30*78





















































$GLGSV,2,1,07,66,23,202,28,88,64,357,29,87,56,095,27,81,17,319,32*62



























$GLGSV,2,2,07,72,39,035,30,80,00,000,,79,04,300,*59












































$GAGSV,1,1,0,*74















































































$PQGSV,1,1,0,*73















































































$GBGSV,1,1,0,*77















































































$GNGSA,A,3,02,05,06,12,13,15,25,29,,,,,1.1,0.8,0.8,1*39








































$GNGSA,A,3,66,72,81,87,88,,,,,,,,1.1,0.8,0.8,2*31














































$GNVTG,,T,,M,0.0,N,0.0,K,A*3D


































































$GNGGA,154030.00,0513.147987,N,02459.535641,W,1,12,0.8,57.0,M,-42.0,M,,*78





















$GNRMC,154030.00,A,0513.147987,N,02459.535641,W,0.0,,200920,8.4,W,A*0A

























$GPGSV,3,1,10,02,60,067,29,05,81,334,24,06,17,091,28,09,07,036,17*75



























$GPGSV,3,2,10,12,17,220,26,13,26,158,32,15,09,191,26,19,03,143,19*76



























$GPGSV,3,3,10,25,22,257,30,29,39,312,31*7F





















































$GLGSV,2,1,07,66,23,202,28,88,64,357,27,87,56,095,29,81,17,319,33*63



























$GLGSV,2,2,07,72,39,035,30,80,00,000,,79,04,300,*59












































$GAGSV,1,1,0,*74















































































$PQGSV,1,1,0,*73















































































$GBGSV,1,1,0,*77















































































$GNGSA,A,3,02,05,06,12,13,15,25,29,,,,,1.1,0.8,0.8,1*39








































$GNGSA,A,3,66,72,81,87,88,,,,,,,,1.1,0.8,0.8,2*31














































$GNVTG,,T,,M,0.0,N,0.0,K,A*3D


































































$GNGGA,154031.00,0513.147988,N,02459.535639,W,1,12,0.8,57.0,M,-42.0,M,,*79





















$GNRMC,154031.00,A,0513.147988,N,02459.535639,W,0.0,,200920,8.4,W,A*0B

























$GPGSV,3,1,10,02,60,067,32,05,81,334,28,06,17,091,33,09,07,036,19*77



























$GPGSV,3,2,10,12,17,220,35,13,26,158,30,15,09,191,31,19,03,143,21*7B



























$GPGSV,3,3,10,25,22,257,35,29,39,312,35*7E





















































$GLGSV,2,1,07,66,23,202,30,88,64,357,30,87,56,095,32,81,17,319,31*64



























$GLGSV,2,2,07,72,39,035,36,80,00,000,,79,04,300,*5F












































$GAGSV,1,1,0,*74















































































$PQGSV,1,1,0,*73















































































$GBGSV,1,1,0,*77















































































$GNGSA,A,3,02,05,06,12,13,15,25,29,,,,,1.1,0.8,0.8,1*39








































$GNGSA,A,3,66,72,81,87,88,,,,,,,,1.1,0.8,0.8,2*31














































$GNVTG,,T,,M,0.0,N,0.0,K,A*3D


































































$GNGGA,154032.00,0513.147990,N,02459.535637,W,1,12,0.8,57.0,M,-42.0,M,,*7D





















$GNRMC,154032.00,A,0513.147990,N,02459.535637,W,0.0,,200920,8.4,W,A*0F

























$GPGSV,3,1,10,02,60,067,30,05,81,334,30,06,17,091,33,09,07,036,19*7C



























$GPGSV,3,2,10,12,17,220,34,13,26,158,30,15,09,191,29,19,03,143,19*78



























$GPGSV,3,3,10,25,22,257,34,29,39,312,33*79





















































$GLGSV,2,1,07,66,23,202,28,88,64,357,31,87,56,095,29,81,17,319,28*6E



























$GLGSV,2,2,07,72,39,035,34,80,00,000,,79,04,300,*5D












































$GAGSV,1,1,0,*74















































































$PQGSV,1,1,0,*73















































































$GBGSV,1,1,0,*77















































































$GNGSA,A,3,02,05,06,12,13,15,25,29,,,,,1.1,0.8,0.8,1*39








































$GNGSA,A,3,66,72,81,87,88,,,,,,,,1.1,0.8,0.8,2*31














































$GNVTG,,T,,M,0.0,N,0.0,K,A*3D


































































$GNGGA,154033.00,0513.147989,N,02459.535637,W,1,12,0.8,57.0,M,-42.0,M,,*74





















$GNRMC,154033.00,A,0513.147989,N,02459.535637,W,0.0,,200920,8.4,W,A*06

























$GPGSV,3,1,10,02,60,067,21,05,81,334,24,06,17,091,32,09,07,036,19*78



























$GPGSV,3,2,10,12,17,220,31,13,26,158,32,15,09,191,26,19,03,143,20*7A



























$GPGSV,3,3,10,25,22,257,34,29,39,312,28*73





















































$GLGSV,2,1,07,66,23,202,29,88,64,357,26,87,56,095,28,81,17,319,29*69



























$GLGSV,2,2,07,72,39,035,24,80,00,000,,79,04,300,*5C












































$GAGSV,1,1,0,*74















































































$PQGSV,1,1,0,*73















































































$GBGSV,1,1,0,*77















































































$GNGSA,A,3,02,05,06,12,13,15,25,29,,,,,1.1,0.8,0.8,1*39








































$GNGSA,A,3,66,72,81,87,88,,,,,,,,1.1,0.8,0.8,2*31














































$GNVTG,,T,,M,0.0,N,0.0,K,A*3D


































































$GNGGA,154034.00,0513.147992,N,02459.535638,W,1,12,0.8,57.0,M,-42.0,M,,*76





















$GNRMC,154034.00,A,0513.147992,N,02459.535638,W,0.0,,200920,8.4,W,A*04

























$GPGSV,3,1,10,02,60,067,31,05,81,334,31,06,17,091,29,09,07,036,28*75



























$GPGSV,3,2,10,12,17,220,33,13,26,158,24,15,09,191,30,19,03,143,23*7B



























$GPGSV,3,3,10,25,22,257,29,29,39,312,34*72





















































$GLGSV,2,1,07,66,23,202,29,88,64,357,31,87,56,095,29,81,17,319,30*66



























$GLGSV,2,2,07,72,39,035,34,80,00,000,,79,04,300,*5D












































$GAGSV,1,1,0,*74















































































$PQGSV,1,1,0,*73















































































$GBGSV,1,1,0,*77















































































$GNGSA,A,3,02,05,06,12,13,15,25,29,,,,,1.1,0.8,0.8,1*39








































$GNGSA,A,3,66,72,81,87,88,,,,,,,,1.1,0.8,0.8,2*31














































$GNVTG,1.2,T,1.2,M,0.7,N,1.3,K,A*38




























































$GNGGA,154035.00,0513.148077,N,02459.535629,W,1,12,0.8,57.0,M,-42.0,M,,*7A





















$GNRMC,154035.00,A,0513.148077,N,02459.535629,W,0.7,1.2,200920,8.4,W,A*22






















$GPGSV,3,1,10,02,60,067,33,05,81,334,31,06,17,091,31,09,07,036,29*7F



























$GPGSV,3,2,10,12,17,220,33,13,26,158,28,15,09,191,31,19,03,143,26*73



























$GPGSV,3,3,10,25,22,257,30,29,39,312,34*7A





















































$GLGSV,2,1,07,66,23,202,31,88,64,357,32,87,56,095,32,81,17,319,30*66



























$GLGSV,2,2,07,72,39,035,36,80,00,000,,79,04,300,*5F












































$GAGSV,1,1,0,*74















































































$PQGSV,1,1,0,*73















































































$GBGSV,1,1,0,*77















































































$GNGSA,A,3,02,05,06,12,13,15,25,29,,,,,1.1,0.8,0.8,1*39








































$GNGSA,A,3,66,72,81,87,88,,,,,,,,1.1,0.8,0.8,2*31














































$GNVTG,1.1,T,1.1,M,0.6,N,1.0,K,A*3A




























































$GNGGA,154036.00,0513.148389,N,02459.535700,W,1,12,0.8,58.0,M,-42.0,M,,*7E





















$GNRMC,154036.00,A,0513.148389,N,02459.535700,W,0.6,1.1,200920,8.4,W,A*2B






















$GPGSV,3,1,10,02,60,067,33,05,81,334,33,06,17,091,31,09,07,036,33*76



























$GPGSV,3,2,10,12,17,220,33,13,26,158,30,15,09,191,31,19,03,143,29*75



























$GPGSV,3,3,10,25,22,257,31,29,39,312,35*7A





















































$GLGSV,2,1,07,66,23,202,31,88,64,357,33,87,56,095,29,81,17,319,32*6F



























$GLGSV,2,2,07,72,39,035,35,80,00,000,,79,04,300,*5C












































$GAGSV,1,1,0,*74















































































$PQGSV,1,1,0,*73















































































$GBGSV,1,1,0,*77















































































$GNGSA,A,3,02,05,06,12,13,15,25,29,,,,,1.1,0.8,0.8,1*39








































$GNGSA,A,3,66,72,81,87,88,,,,,,,,1.1,0.8,0.8,2*31














































$GNVTG,,T,,M,0.0,N,0.0,K,A*3D


































































$GNGGA,154037.00,0513.148245,N,02459.535706,W,1,12,0.8,59.0,M,-42.0,M,,*79





















$GNRMC,154037.00,A,0513.148245,N,02459.535706,W,0.0,,200920,8.4,W,A*05

























$GPGSV,3,1,10,02,60,067,33,05,81,334,33,06,17,091,31,09,07,036,34*71



























$GPGSV,3,2,10,12,17,220,34,13,26,158,29,15,09,191,30,19,03,143,29*7B



























$GPGSV,3,3,10,25,22,257,31,29,39,312,35*7A





















































$GLGSV,2,1,07,66,23,202,31,88,64,357,33,87,56,095,30,81,17,319,32*67



























$GLGSV,2,2,07,72,39,035,36,80,00,000,,79,04,300,*5F












































$GAGSV,1,1,0,*74















































































$PQGSV,1,1,0,*73















































































$GBGSV,1,1,0,*77















































































$GNGSA,A,3,02,05,06,12,13,15,25,29,,,,,1.1,0.8,0.8,1*39








































$GNGSA,A,3,66,72,81,87,88,,,,,,,,1.1,0.8,0.8,2*31














































$GNVTG,,T,,M,0.0,N,0.0,K,A*3D


































































$GNGGA,154038.00,0513.147769,N,02459.535625,W,1,12,0.8,60.0,M,-42.0,M,,*78





















$GNRMC,154038.00,A,0513.147769,N,02459.535625,W,0.0,,200920,8.4,W,A*0E

























$GPGSV,3,1,10,02,60,067,34,05,81,334,33,06,17,091,33,09,07,036,34*74



























$GPGSV,3,2,10,12,17,220,34,13,26,158,27,15,09,191,33,19,03,143,27*78



























$GPGSV,3,3,10,25,22,257,32,29,39,312,34*78





















































$GLGSV,2,1,08,66,23,202,31,65,00,000,29,88,64,357,34,87,56,095,33*61



























$GLGSV,2,2,08,81,17,319,31,72,39,035,38,80,00,000,,79,04,300,*68































$GAGSV,1,1,0,*74















































































$PQGSV,1,1,0,*73















































































$GBGSV,1,1,0,*77















































































$GNGSA,A,3,02,05,06,12,13,15,25,29,,,,,1.1,0.8,0.8,1*39








































$GNGSA,A,3,66,72,81,87,88,,,,,,,,1.1,0.8,0.8,2*31














































$GNVTG,204.2,T,204.2,M,3.5,N,6.6,K,A*3B
























































$GNGGA,154039.00,0513.147094,N,02459.536078,W,1,12,0.8,60.0,M,-42.0,M,,*71





















$GNRMC,154039.00,A,0513.147094,N,02459.536078,W,3.5,204.2,200920,8.4,W,A*2B




















$GPGSV,3,1,10,02,60,067,33,05,81,334,33,06,17,091,31,09,07,036,33*76



























$GPGSV,3,2,10,12,17,220,34,13,26,158,28,15,09,191,33,19,03,143,27*77



























$GPGSV,3,3,10,25,22,257,30,29,39,312,33*7D





















































$GLGSV,2,1,08,66,23,202,31,65,00,000,28,88,64,357,33,87,56,095,32*66



























$GLGSV,2,2,08,81,17,319,31,72,39,035,37,80,00,000,,79,04,300,*67































$GAGSV,1,1,0,*74















































































$PQGSV,1,1,0,*73















































































$GBGSV,1,1,0,*77















































































$GNGSA,A,3,02,05,06,12,13,15,25,29,,,,,1.1,0.8,0.8,1*39








































$GNGSA,A,3,66,72,81,87,88,,,,,,,,1.1,0.8,0.8,2*31














































$GNVTG,190.2,T,190.2,M,7.1,N,13.1,K,A*08























































$GNGGA,154040.00,0513.145366,N,02459.536607,W,1,12,0.8,61.0,M,-42.0,M,,*7C





















$GNRMC,154040.00,A,0513.145366,N,02459.536607,W,7.1,190.2,200920,8.4,W,A*29




















$GPGSV,3,1,10,02,60,067,29,05,81,334,31,06,17,091,22,09,07,036,29*76



























$GPGSV,3,2,10,12,17,220,29,13,26,158,29,15,09,191,31,19,03,143,27*78



























$GPGSV,3,3,10,25,22,257,24,29,39,312,34*7F





















































$GLGSV,2,1,08,66,23,202,30,65,00,000,28,88,64,357,33,87,56,095,32*67



























$GLGSV,2,2,08,81,17,319,29,72,39,035,33,80,00,000,,79,04,300,*6A































$GAGSV,1,1,0,*74















































































$PQGSV,1,1,0,*73















































































$GBGSV,1,1,0,*77















































































$GNGSA,A,3,02,05,06,12,13,15,25,29,,,,,1.1,0.8,0.8,1*39








































$GNGSA,A,3,66,72,81,87,88,,,,,,,,1.1,0.8,0.8,2*31














































$GNVTG,183.8,T,183.8,M,7.2,N,13.3,K,A*09























































$GNGGA,154041.00,0513.143229,N,02459.536766,W,1,12,0.8,61.0,M,-42.0,M,,*77





















$GNRMC,154041.00,A,0513.143229,N,02459.536766,W,7.2,183.8,200920,8.4,W,A*29




















$GPGSV,3,1,10,02,60,067,31,05,81,334,33,06,17,091,24,09,07,036,28*7A



























$GPGSV,3,2,10,12,17,220,29,13,26,158,28,15,09,191,31,19,03,143,25*7B



























$GPGSV,3,3,10,25,22,257,26,29,39,312,32*7B





















































$GLGSV,2,1,08,66,23,202,29,65,00,000,28,88,64,357,35,87,56,095,33*68



























$GLGSV,2,2,08,81,17,319,32,72,39,035,33,80,00,000,,79,04,300,*60































$GAGSV,1,1,0,*74















































































$PQGSV,1,1,0,*73















































































$GBGSV,1,1,0,*77















































































$GNGSA,A,3,02,05,06,12,13,15,25,29,,,,,1.1,0.8,0.8,1*39








































$GNGSA,A,3,66,72,81,87,88,,,,,,,,1.1,0.8,0.8,2*31














































$GNVTG,176.6,T,176.6,M,8.2,N,15.1,K,A*02























































$GNGGA,154042.00,0513.140944,N,02459.536684,W,1,12,0.8,62.0,M,-42.0,M,,*79





















$GNRMC,154042.00,A,0513.140944,N,02459.536684,W,8.2,176.6,200920,8.4,W,A*2F




















$GPGSV,3,1,10,02,60,067,31,05,81,334,32,06,17,091,29,09,07,036,26*78



























$GPGSV,3,2,10,12,17,220,28,13,26,158,32,15,09,191,31,19,03,143,31*74



























$GPGSV,3,3,10,25,22,257,28,29,39,312,34*73





















































$GLGSV,2,1,08,66,23,202,29,65,00,000,29,88,64,357,33,87,56,095,33*6F



























$GLGSV,2,2,08,81,17,319,34,72,39,035,28,80,00,000,,79,04,300,*6C































$GAGSV,1,1,0,*74















































































$PQGSV,1,1,0,*73















































































$GBGSV,1,1,0,*77















































































$GNGSA,A,3,02,05,06,12,13,15,25,29,,,,,1.1,0.8,0.8,1*39








































$GNGSA,A,3,66,72,81,87,88,,,,,,,,1.1,0.8,0.8,2*31














































$GNVTG,160.0,T,160.0,M,5.1,N,9.4,K,A*34
























































$GNGGA,154043.00,0513.139116,N,02459.536315,W,1,12,0.8,63.0,M,-42.0,M,,*75





















$GNRMC,154043.00,A,0513.139116,N,02459.536315,W,5.1,160.0,200920,8.4,W,A*2D




















$GPGSV,3,1,10,02,60,067,31,05,81,334,32,06,17,091,25,09,07,036,26*74



























$GPGSV,3,2,10,12,17,220,27,13,26,158,28,15,09,191,30,19,03,143,30*70



























$GPGSV,3,3,10,25,22,257,29,29,39,312,35*73





















































$GLGSV,2,1,08,66,23,202,28,65,00,000,28,88,64,357,32,87,56,095,34*69



























$GLGSV,2,2,08,81,17,319,34,72,39,035,28,80,00,000,,79,04,300,*6C































$GAGSV,1,1,0,*74















































































$PQGSV,1,1,0,*73















































































$GBGSV,1,1,0,*77















































































$GNGSA,A,3,02,05,06,12,13,15,25,29,,,,,1.1,0.8,0.8,1*39








































$GNGSA,A,3,66,72,81,87,88,,,,,,,,1.1,0.8,0.8,2*31














































$GNVTG,160.0,T,160.0,M,2.0,N,3.7,K,A*3B
























































$GNGGA,154044.00,0513.138418,N,02459.536208,W,1,12,0.8,63.0,M,-42.0,M,,*75





















$GNRMC,154044.00,A,0513.138418,N,02459.536208,W,2.0,160.0,200920,8.4,W,A*2B




















$GPGSV,3,1,10,02,60,067,31,05,81,334,31,06,17,091,27,09,07,036,26*75



























$GPGSV,3,2,10,12,17,220,27,13,26,158,31,15,09,191,30,19,03,143,30*78



























$GPGSV,3,3,10,25,22,257,28,29,39,312,35*72





















































$GLGSV,2,1,08,66,23,202,28,65,00,000,29,88,64,357,33,87,56,095,34*69



























$GLGSV,2,2,08,81,17,319,35,72,39,035,28,80,00,000,,79,04,300,*6D































$GAGSV,1,1,0,*74















































































$PQGSV,1,1,0,*73















































































$GBGSV,1,1,0,*77















































































$GNGSA,A,3,02,05,06,12,13,15,25,29,,,,,1.1,0.8,0.8,1*39








































$GNGSA,A,3,66,72,81,87,88,,,,,,,,1.1,0.8,0.8,2*31














































$GNVTG,272.6,T,272.6,M,2.8,N,5.3,K,A*31
























































$GNGGA,154045.00,0513.138144,N,02459.536761,W,1,12,0.8,65.0,M,-42.0,M,,*74





















$GNRMC,154045.00,A,0513.138144,N,02459.536761,W,2.8,272.6,200920,8.4,W,A*22




















$GPGSV,3,1,10,02,60,067,28,05,81,334,31,06,17,091,27,09,07,036,25*7E



























$GPGSV,3,2,10,12,17,220,27,13,26,158,28,15,09,191,29,19,03,143,26*7F



























$GPGSV,3,3,10,25,22,257,30,29,39,312,34*7A





















































$GLGSV,2,1,08,66,23,202,29,79,04,300,22,65,00,000,30,88,64,357,33*6E



























$GLGSV,2,2,08,87,56,095,33,81,17,319,35,72,39,035,31,80,00,000,*6C





























$GAGSV,1,1,0,*74















































































$PQGSV,1,1,0,*73















































































$GBGSV,1,1,0,*77















































































$GNGSA,A,3,02,05,06,12,13,15,25,29,,,,,1.1,0.8,0.8,1*39








































$GNGSA,A,3,66,72,81,87,88,,,,,,,,1.1,0.8,0.8,2*31














































$GNVTG,300.2,T,300.2,M,4.5,N,8.3,K,A*37
























































$GNGGA,154046.00,0513.138450,N,02459.538097,W,1,12,0.8,66.0,M,-42.0,M,,*74





















$GNRMC,154046.00,A,0513.138450,N,02459.538097,W,4.5,300.2,200920,8.4,W,A*2A




















$GPGSV,3,1,10,02,60,067,29,05,81,334,32,06,17,091,25,09,07,036,29*72



























$GPGSV,3,2,10,12,17,220,26,13,26,158,27,15,09,191,29,19,03,143,29*7E



























$GPGSV,3,3,10,25,22,257,27,29,39,312,34*7C





















































$GLGSV,2,1,08,66,23,202,29,79,04,300,22,65,00,000,29,88,64,357,31*64



























$GLGSV,2,2,08,87,56,095,34,81,17,319,33,72,39,035,30,80,00,000,*6C





























$GAGSV,1,1,0,*74















































































$PQGSV,1,1,0,*73















































































$GBGSV,1,1,0,*77















































































$GNGSA,A,3,02,05,06,12,13,15,25,29,,,,,1.1,0.8,0.8,1*39








































$GNGSA,A,3,66,72,81,87,88,,,,,,,,1.1,0.8,0.8,2*31














































$GNVTG,300.2,T,300.2,M,3.2,N,5.9,K,A*30
























































$GNGGA,154047.00,0513.138888,N,02459.539577,W,1,12,0.8,65.0,M,-42.0,M,,*75





















$GNRMC,154047.00,A,0513.138888,N,02459.539577,W,3.2,300.2,200920,8.4,W,A*28




















$GPGSV,3,1,10,02,60,067,31,05,81,334,32,06,17,091,26,09,07,036,30*70



























$GPGSV,3,2,10,12,17,220,27,13,26,158,27,15,09,191,29,19,03,143,31*76



























$GPGSV,3,3,10,25,22,257,30,29,39,312,34*7A





















































$GLGSV,2,1,08,66,23,202,29,79,04,300,24,65,00,000,29,88,64,357,31*62



























$GLGSV,2,2,08,87,56,095,34,81,17,319,34,72,39,035,26,80,00,000,*6C





























$GAGSV,1,1,0,*74















































































$PQGSV,1,1,0,*73















































































$GBGSV,1,1,0,*77















































































$GNGSA,A,3,02,05,06,12,13,15,25,29,,,,,1.1,0.8,0.8,1*39








































$GNGSA,A,3,66,72,81,87,88,,,,,,,,1.1,0.8,0.8,2*31














































$GNVTG,232.4,T,232.4,M,2.6,N,4.8,K,A*35
























































$GNGGA,154048.00,0513.138955,N,02459.540641,W,1,12,0.8,66.0,M,-42.0,M,,*70





















$GNRMC,154048.00,A,0513.138955,N,02459.540641,W,2.6,232.4,200920,8.4,W,A*2D




















$GPGSV,3,1,10,02,60,067,31,05,81,334,32,06,17,091,26,09,07,036,29*78



























$GPGSV,3,2,10,12,17,220,27,13,26,158,31,15,09,191,28,19,03,143,31*70



























$GPGSV,3,3,10,25,22,257,27,29,39,312,33*7B





















































$GLGSV,2,1,08,66,23,202,28,79,04,300,24,65,00,000,29,88,64,357,31*63



























$GLGSV,2,2,08,87,56,095,34,81,17,319,34,72,39,035,26,80,00,000,*6C





























$GAGSV,1,1,0,*74















































































$PQGSV,1,1,0,*73















































































$GBGSV,1,1,0,*77















































































$GNGSA,A,3,02,05,06,12,13,15,25,29,,,,,1.1,0.8,0.8,1*39








































$GNGSA,A,3,66,72,81,87,88,,,,,,,,1.1,0.8,0.8,2*31














































$GNVTG,232.8,T,232.8,M,2.3,N,4.2,K,A*3A
























































$GNGGA,154049.00,0513.138814,N,02459.541479,W,1,12,0.8,66.0,M,-42.0,M,,*7D





















$GNRMC,154049.00,A,0513.138814,N,02459.541479,W,2.3,232.8,200920,8.4,W,A*29




















$GPGSV,3,1,10,02,60,067,30,05,81,334,31,06,17,091,27,09,07,036,30*73



























$GPGSV,3,2,10,12,17,220,28,13,26,158,29,15,09,191,27,19,03,143,25*7C



























$GPGSV,3,3,10,25,22,257,29,29,39,312,32*74





















































$GLGSV,2,1,08,66,23,202,31,79,04,300,24,65,00,000,28,88,64,357,31*6A



























$GLGSV,2,2,08,87,56,095,33,81,17,319,31,72,39,035,29,80,00,000,*61





























$GAGSV,1,1,0,*74















































































$PQGSV,1,1,0,*73















































































$GBGSV,1,1,0,*77















































































$GNGSA,A,3,02,05,06,12,13,15,25,29,,,,,1.1,0.8,0.8,1*39








































$GNGSA,A,3,66,72,81,87,88,,,,,,,,1.1,0.8,0.8,2*31














































$GNVTG,232.7,T,232.7,M,0.4,N,0.7,K,A*3E
























































$GNGGA,154050.00,0513.138670,N,02459.541799,W,1,12,0.8,67.0,M,-42.0,M,,*75





















$GNRMC,154050.00,A,0513.138670,N,02459.541799,W,0.4,232.7,200920,8.4,W,A*2A




















$GPGSV,3,1,10,02,60,067,30,05,81,334,31,06,17,091,28,09,07,036,29*74



























$GPGSV,3,2,10,12,17,220,31,13,26,158,32,15,09,191,28,19,03,143,26*72



























$GPGSV,3,3,10,25,22,257,31,29,39,312,28*76





















































$GLGSV,2,1,08,66,23,202,33,79,04,300,25,65,00,000,29,88,64,357,30*69



























$GLGSV,2,2,08,87,56,095,32,81,17,319,30,72,39,035,31,80,00,000,*68





























$GAGSV,1,1,0,*74















































































$PQGSV,1,1,0,*73















































































$GBGSV,1,1,0,*77















































































$GNGSA,A,3,02,05,06,12,13,15,25,29,,,,,1.1,0.8,0.8,1*39








































$GNGSA,A,3,66,72,81,87,88,,,,,,,,1.1,0.8,0.8,2*31














































$GNVTG,,T,,M,0.0,N,0.0,K,A*3D


































































$GNGGA,154051.00,0513.138677,N,02459.541794,W,1,12,0.8,67.0,M,-42.0,M,,*7E





















$GNRMC,154051.00,A,0513.138677,N,02459.541794,W,0.0,,200920,8.4,W,A*0F

























$GPGSV,3,1,10,02,60,067,29,05,81,334,29,06,17,091,27,09,07,036,26*75



























$GPGSV,3,2,10,12,17,220,32,13,26,158,30,15,09,191,32,19,03,143,27*79



























$GPGSV,3,3,10,25,22,257,29,29,39,312,26*71





















































$GLGSV,2,1,08,66,23,202,34,79,04,300,22,65,00,000,28,88,64,357,29*60



























$GLGSV,2,2,08,87,56,095,33,81,17,319,31,72,39,035,31,80,00,000,*68





























$GAGSV,1,1,0,*74















































































$PQGSV,1,1,0,*73















































































$GBGSV,1,1,0,*77















































































$GNGSA,A,3,02,05,06,12,13,15,25,29,,,,,1.1,0.8,0.8,1*39








































$GNGSA,A,3,66,72,81,87,88,,,,,,,,1.1,0.8,0.8,2*31














































$GNVTG,204.1,T,204.1,M,4.0,N,7.5,K,A*3B
























































$GNGGA,154052.00,0513.138052,N,02459.542084,W,1,12,0.8,67.0,M,-42.0,M,,*79





















