$GNFCA,147027/40,0534.073024,N,02540.706995,W,1,12,0.7,57.0,M,-42.0,M,,*78





















$GNRMC,153027.00,A,0534.073024,N,02540.706995,W,0.0,,280620,8.4,W,A*02

























$GPGSV,3,1,11,01,43,049,36,03,22,108,27,07,13,177,35,11,17,053,37*7C



























$GPGSV,3,2,11,17,53,286,34,19,31,268,32,22,25,082,34,28,74,345,35*73



























$GPGSV,3,3,11,30,36,201,27,06,13,210,,13,01,262,*4B












































$GLGSV,2,1,08,78,40,158,35,82,36,244,30,80,22,326,31,79,78,289,32*6F



























$GLGSV,2,2,08,65,04,063,34,88,28,036,26,81,70,331,33,72,02,023,*6A





























$GAGSV,1,1,0,*74















































































$PQGSV,1,1,0,*73















































































$GBGSV,1,1,0,*77















































































$GNGSA,A,3,01,03,06,07,11,17,19,22,28,30,,,1.0,0.7,0.8,1*3B




































$GNGSA,A,3,78,80,81,82,88,,,,,,,,1.0,0.7,0.8,2*38














































$GNVTG,,T,,M,0.0,N,0.0,K,A*3D


































































$GNGGA,153028.00,0534.073072,N,02540.707051,W,1,12,0.7,57.0,M,-42.0,M,,*74





















$GNRMC,153028.00,A,0534.073072,N,02540.707051,W,0.0,,280620,8.4,W,A*0E

























$GPGSV,3,1,11,01,43,049,31,03,22,108,25,07,13,177,30,11,17,053,32*79



























$GPGSV,3,2,11,17,53,286,30,19,31,268,27,22,25,082,31,28,74,345,31*72



























$GPGSV,3,3,11,30,36,201,24,06,13,210,,13,01,262,*48












































$GLGSV,2,1,08,78,40,158,31,82,36,244,27,80,22,326,27,79,78,289,28*61



























$GLGSV,2,2,08,65,04,063,30,88,28,036,23,81,70,331,28,72,02,023,*61





























$GAGSV,1,1,0,*74















































































$PQGSV,1,1,0,*73















































































$GBGSV,1,1,0,*77















































































$GNGSA,A,3,01,03,06,07,11,17,19,22,28,30,,,1.0,0.7,0.8,1*3B




































$GNGSA,A,3,78,80,81,82,88,,,,,,,,1.0,0.7,0.8,2*38














































$GNVTG,,T,,M,0.0,N,0.0,K,A*3D


































































$GNGGA,153029.00,0534.073089,N,02540.707093,W,1,12,0.7,57.0,M,-42.0,M,,*7F





















$GNRMC,153029.00,A,0534.073089,N,02540.707093,W,0.0,,280620,8.4,W,A*05

























$GPGSV,3,1,11,01,43,049,27,03,22,108,26,07,13,177,20,11,17,053,27*78



























$GPGSV,3,2,11,17,53,286,30,19,31,268,27,22,25,082,27,28,74,345,31*75



























$GPGSV,3,3,11,30,36,201,24,06,13,210,,13,01,262,*48












































$GLGSV,2,1,08,78,40,158,20,82,36,244,27,80,22,326,17,79,78,289,17*6E



























$GLGSV,2,2,08,65,04,063,21,88,28,036,24,81,70,331,19,72,02,023,*64





























$GAGSV,1,1,0,*74















































































$PQGSV,1,1,0,*73















































































$GBGSV,1,1,0,*77















































































$GNGSA,A,3,01,03,06,07,11,17,19,22,28,30,,,1.0,0.7,0.8,1*3B




































$GNGSA,A,3,78,80,81,82,88,,,,,,,,1.0,0.7,0.8,2*38














































$GNVTG,,T,,M,0.0,N,0.0,K,A*3D


































































$GNGGA,153030.00,0534.073115,N,02540.707115,W,1,12,0.7,57.0,M,-42.0,M,,*7C





















$GNRMC,153030.00,A,0534.073115,N,02540.707115,W,0.0,,280620,8.4,W,A*06

























$GPGSV,3,1,11,01,43,049,22,03,22,108,23,06,13,210,18,07,13,177,19*79



























$GPGSV,3,2,11,11,17,053,18,17,53,286,30,19,31,268,15,22,25,082,26*75



























$GPGSV,3,3,11,28,74,345,19,30,36,201,21,13,01,262,*49










































$GLGSV,2,1,08,78,40,158,20,82,36,244,17,80,22,326,20,79,78,289,17*69



























$GLGSV,2,2,08,65,04,063,20,88,28,036,25,81,70,331,19,72,02,023,*64





























$GAGSV,1,1,0,*74















































































$PQGSV,1,1,0,*73















































































$GBGSV,1,1,0,*77















































































$GNGSA,A,3,01,03,06,07,11,17,19,22,28,30,,,1.0,0.7,0.8,1*3B




































$GNGSA,A,3,78,80,81,82,88,,,,,,,,1.0,0.7,0.8,2*38














































$GNVTG,,T,,M,0.0,N,0.0,K,A*3D


































































$GNGGA,153031.00,0534.073123,N,02540.707124,W,1,12,0.7,57.0,M,-42.0,M,,*7A





















$GNRMC,153031.00,A,0534.073123,N,02540.707124,W,0.0,,280620,8.4,W,A*00

























$GPGSV,3,1,11,01,43,049,25,03,22,108,27,06,13,210,18,07,13,177,33*72



























$GPGSV,3,2,11,11,17,053,25,17,53,286,30,19,31,268,15,22,25,082,31*7D



























$GPGSV,3,3,11,28,74,345,24,30,36,201,24,13,01,262,*42










































$GLGSV,2,1,08,78,40,158,25,82,36,244,19,80,22,326,18,79,78,289,19*67



























$GLGSV,2,2,08,65,04,063,22,88,28,036,22,81,70,331,20,72,02,023,*6B





























$GAGSV,1,1,0,*74















































































$PQGSV,1,1,0,*73















































































$GBGSV,1,1,0,*77















































































$GNGSA,A,3,01,03,06,07,11,17,19,22,28,30,,,1.0,0.7,0.8,1*3B




































$GNGSA,A,3,78,80,81,82,88,,,,,,,,1.0,0.7,0.8,2*38














































$GNVTG,,T,,M,0.0,N,0.0,K,A*3D


































































$GNGGA,153032.00,0534.073140,N,02540.707172,W,1,12,0.7,57.0,M,-42.0,M,,*7F





















$GNRMC,153032.00,A,0534.073140,N,02540.707172,W,0.0,,280620,8.4,W,A*05

























$GPGSV,3,1,11,01,43,049,31,03,22,108,33,06,13,210,27,07,13,177,31*7C



























$GPGSV,3,2,11,11,17,053,25,17,53,286,18,19,31,268,17,22,25,082,38*7C



























$GPGSV,3,3,11,28,74,345,30,30,36,201,29,13,01,262,*4A










































$GLGSV,2,1,08,78,40,158,28,82,36,244,21,80,22,326,25,79,78,289,30*64



























$GLGSV,2,2,08,65,04,063,30,88,28,036,28,81,70,331,28,72,02,023,*6A





























$GAGSV,1,1,0,*74















































































$PQGSV,1,1,0,*73















































































$GBGSV,1,1,0,*77















































































$GNGSA,A,3,01,03,06,07,11,17,19,22,28,30,,,1.0,0.7,0.8,1*3B




































$GNGSA,A,3,78,80,81,82,88,,,,,,,,1.0,0.7,0.8,2*38














































$GNVTG,,T,,M,0.0,N,0.0,K,A*3D


































































$GNGGA,153033.00,0534.073164,N,02540.707171,W,1,12,0.7,57.0,M,-42.0,M,,*7B





















$GNRMC,153033.00,A,0534.073164,N,02540.707171,W,0.0,,280620,8.4,W,A*01

























$GPGSV,3,1,11,01,43,049,33,03,22,108,33,06,13,210,27,07,13,177,31*7E



























$GPGSV,3,2,11,11,17,053,34,17,53,286,32,19,31,268,28,22,25,082,33*73



























$GPGSV,3,3,11,28,74,345,33,30,36,201,33,13,01,262,*42










































$GLGSV,2,1,08,78,40,158,30,82,36,244,29,80,22,326,29,79,78,289,31*68



























$GLGSV,2,2,08,65,04,063,31,88,28,036,32,81,70,331,31,72,02,023,*68





























$GAGSV,1,1,0,*74















































































$PQGSV,1,1,0,*73















































































$GBGSV,1,1,0,*77















































































$GNGSA,A,3,01,03,06,07,11,17,19,22,28,30,,,1.0,0.7,0.8,1*3B




































$GNGSA,A,3,78,80,81,82,88,,,,,,,,1.0,0.7,0.8,2*38














































$GNVTG,,T,,M,0.0,N,0.0,K,A*3D


































































$GNGGA,153034.00,0534.073065,N,02540.707035,W,1,12,0.7,57.0,M,-42.0,M,,*7D





















$GNRMC,153034.00,A,0534.073065,N,02540.707035,W,0.0,,280620,8.4,W,A*07

























$GPGSV,3,1,11,01,43,049,38,03,22,108,32,06,13,210,31,07,13,177,36*74



























$GPGSV,3,2,11,11,17,053,36,17,53,286,32,19,31,268,33,22,25,082,37*7F



























$GPGSV,3,3,11,28,74,345,37,30,36,201,33,13,01,262,*46










































$GLGSV,2,1,08,78,40,158,36,82,36,244,32,80,22,326,32,79,78,289,35*6A



























$GLGSV,2,2,08,65,04,063,33,88,28,036,36,81,70,331,36,72,02,023,*69





























$GAGSV,1,1,0,*74















































































$PQGSV,1,1,0,*73















































































$GBGSV,1,1,0,*77















































































$GNGSA,A,3,01,03,06,07,11,17,19,22,28,30,,,1.0,0.7,0.8,1*3B




































$GNGSA,A,3,78,80,81,82,88,,,,,,,,1.0,0.7,0.8,2*38














































$GNVTG,58.8,T,58.8,M,0.6,N,1.2,K,A*38


























































$GNGGA,153035.00,0534.073172,N,02540.706755,W,1,12,0.7,57.0,M,-42.0,M,,*7B





















$GNRMC,153035.00,A,0534.073172,N,02540.706755,W,0.6,58.8,280620,8.4,W,A*1C





















$GPGSV,3,1,11,01,43,049,39,03,22,108,31,06,13,210,31,07,13,177,34*74



























$GPGSV,3,2,11,11,17,053,34,17,53,286,31,19,31,268,31,22,25,082,37*7C



























$GPGSV,3,3,11,28,74,345,33,30,36,201,31,13,01,262,*40










































$GLGSV,2,1,08,78,40,158,31,82,36,244,27,80,22,326,27,79,78,289,33*6B



























$GLGSV,2,2,08,65,04,063,32,88,28,036,37,81,70,331,37,72,02,023,*68





























$GAGSV,1,1,0,*74















































































$PQGSV,1,1,0,*73















































































$GBGSV,1,1,0,*77















































































$GNGSA,A,3,01,03,06,07,11,17,19,22,28,30,,,1.0,0.7,0.8,1*3B




































$GNGSA,A,3,78,80,81,82,88,,,,,,,,1.0,0.7,0.8,2*38














































$GNVTG,58.2,T,58.2,M,0.3,N,0.6,K,A*38


























































$GNGGA,153036.00,0534.073203,N,02540.706571,W,1,12,0.7,57.0,M,-42.0,M,,*79





















$GNRMC,153036.00,A,0534.073203,N,02540.706571,W,0.3,58.2,280620,8.4,W,A*11





















$GPGSV,3,1,11,01,43,049,39,03,22,108,34,06,13,210,33,07,13,177,35*72



























$GPGSV,3,2,11,11,17,053,35,17,53,286,34,19,31,268,27,22,25,082,37*7F



























$GPGSV,3,3,11,28,74,345,34,30,36,201,32,13,01,262,*44










































$GLGSV,2,1,08,78,40,158,36,82,36,244,29,80,22,326,30,79,78,289,31*66



























$GLGSV,2,2,08,65,04,063,27,88,28,036,35,81,70,331,37,72,02,023,*6E





























$GAGSV,1,1,0,*74















































































$PQGSV,1,1,0,*73















































































$GBGSV,1,1,0,*77















































































$GNGSA,A,3,01,03,06,07,11,17,19,22,28,30,,,1.0,0.7,0.8,1*3B




































$GNGSA,A,3,78,80,81,82,88,,,,,,,,1.0,0.7,0.8,2*38














































$GNVTG,58.4,T,58.4,M,0.8,N,1.5,K,A*31


























































$GNGGA,153037.00,0534.073221,N,02540.706394,W,1,12,0.7,57.0,M,-42.0,M,,*75





















$GNRMC,153037.00,A,0534.073221,N,02540.706394,W,0.8,58.4,280620,8.4,W,A*10





















$GPGSV,3,1,11,01,43,049,40,03,22,108,37,06,13,210,32,07,13,177,38*73



























$GPGSV,3,2,11,11,17,053,36,17,53,286,35,19,31,268,33,22,25,082,39*76



























$GPGSV,3,3,11,28,74,345,36,30,36,201,34,13,01,262,*40










































$GLGSV,2,1,08,78,40,158,39,82,36,244,27,80,22,326,28,79,78,289,32*6D



























$GLGSV,2,2,08,65,04,063,23,88,28,036,38,81,70,331,36,72,02,023,*66





























$GAGSV,1,1,0,*74















































































$PQGSV,1,1,0,*73















































































$GBGSV,1,1,0,*77















































































$GNGSA,A,3,01,03,06,07,11,17,19,22,28,30,,,1.0,0.7,0.8,1*3B




































$GNGSA,A,3,78,80,81,82,88,,,,,,,,1.0,0.7,0.8,2*38














































$GNVTG,,T,,M,0.0,N,0.0,K,A*3D


































































$GNGGA,153038.00,0534.073245,N,02540.706271,W,1,12,0.7,57.0,M,-42.0,M,,*72





















$GNRMC,153038.00,A,0534.073245,N,02540.706271,W,0.0,,280620,8.4,W,A*08

























$GPGSV,3,1,11,01,43,049,39,03,22,108,36,06,13,210,25,07,13,177,40*75



























$GPGSV,3,2,11,11,17,053,37,17,53,286,34,19,31,268,36,22,25,082,37*7D



























$GPGSV,3,3,11,28,74,345,34,30,36,201,33,13,01,262,*45










































$GLGSV,2,1,08,78,40,158,38,82,36,244,22,80,22,326,30,79,78,289,35*67



























$GLGSV,2,2,08,65,04,063,28,88,28,036,36,81,70,331,34,72,02,023,*61





























$GAGSV,1,1,0,*74















































































$PQGSV,1,1,0,*73















































































$GBGSV,1,1,0,*77















































































$GNGSA,A,3,01,03,06,07,11,17,19,22,28,30,,,1.0,0.7,0.8,1*3B




































$GNGSA,A,3,78,80,81,82,88,,,,,,,,1.0,0.7,0.8,2*38














































$GNVTG,58.2,T,58.2,M,1.0,N,1.9,K,A*34


























































$GNGGA,153039.00,0534.073425,N,02540.706121,W,1,12,0.7,57.0,M,-42.0,M,,*75





















$GNRMC,153039.00,A,0534.073425,N,02540.706121,W,1.0,58.2,280620,8.4,W,A*1F





















$GPGSV,3,1,11,01,43,049,38,03,22,108,36,06,13,210,21,07,13,177,39*7E



























$GPGSV,3,2,11,11,17,053,34,17,53,286,32,19,31,268,34,22,25,082,36*7B



























$GPGSV,3,3,11,28,74,345,35,30,36,201,31,13,01,262,*46










































$GLGSV,2,1,08,78,40,158,40,82,36,244,27,80,22,326,33,79,78,289,35*6E



























$GLGSV,2,2,08,65,04,063,29,88,28,036,40,81,70,331,37,72,02,023,*62





























$GAGSV,1,1,0,*74















































































$PQGSV,1,1,0,*73















































































$GBGSV,1,1,0,*77















































































$GNGSA,A,3,01,03,06,07,11,17,19,22,28,30,,,1.0,0.7,0.8,1*3B




































$GNGSA,A,3,78,80,81,82,88,,,,,,,,1.0,0.7,0.8,2*38














































$GNVTG,55.8,T,55.8,M,2.4,N,4.5,K,A*3A


























































$GNGGA,153040.00,0534.073852,N,02540.705626,W,1,12,0.7,56.0,M,-42.0,M,,*75





















$GNRMC,153040.00,A,0534.073852,N,02540.705626,W,2.4,55.8,280620,8.4,W,A*1E





















$GPGSV,3,1,11,01,43,049,39,03,22,108,37,07,13,177,42,11,17,053,38*7D



























$GPGSV,3,2,11,17,53,286,31,19,31,268,36,22,25,082,39,28,74,345,33*79



























$GPGSV,3,3,11,30,36,201,33,06,13,210,,13,01,262,*4E












































$GLGSV,2,1,08,78,40,158,38,82,36,244,27,80,22,326,27,79,78,289,34*65



























$GLGSV,2,2,08,65,04,063,31,88,28,036,39,81,70,331,35,72,02,023,16*60



























$GAGSV,1,1,0,*74















































































$PQGSV,1,1,0,*73















































































$GBGSV,1,1,0,*77















































































$GNGSA,A,3,01,03,06,07,11,17,19,22,28,30,,,1.0,0.7,0.7,1*34




































$GNGSA,A,3,78,80,81,82,88,,,,,,,,1.0,0.7,0.7,2*37














































$GNVTG,55.5,T,55.5,M,2.1,N,3.9,K,A*34


























































$GNGGA,153041.00,0534.074322,N,02540.704984,W,1,12,0.7,56.0,M,-42.0,M,,*79





















$GNRMC,153041.00,A,0534.074322,N,02540.704984,W,2.1,55.5,280620,8.4,W,A*1A





















$GPGSV,3,1,11,01,43,049,38,03,22,108,36,06,13,210,31,07,13,177,36*70



























$GPGSV,3,2,11,11,17,053,32,17,53,286,35,19,31,268,29,22,25,082,36*76



























$GPGSV,3,3,11,28,74,345,34,30,36,201,32,13,01,262,*44










































$GLGSV,2,1,08,78,40,158,38,82,36,244,27,80,22,326,25,79,78,289,34*67



























$GLGSV,2,2,08,65,04,063,23,88,28,036,37,81,70,331,36,72,02,023,15*6D



























$GAGSV,1,1,0,*74















































































$PQGSV,1,1,0,*73















































































$GBGSV,1,1,0,*77















































































$GNGSA,A,3,01,03,06,07,11,17,19,22,28,30,,,1.0,0.7,0.7,1*34




































$GNGSA,A,3,65,78,80,81,82,88,,,,,,,1.0,0.7,0.7,2*34












































$GNVTG,55.8,T,55.8,M,1.1,N,2.1,K,A*3E


























































$GNGGA,153042.00,0534.074457,N,02540.704547,W,1,12,0.7,57.0,M,-42.0,M,,*7D





















$GNRMC,153042.00,A,0534.074457,N,02540.704547,W,1.1,55.8,280620,8.4,W,A*11





















$GPGSV,3,1,11,01,43,049,37,03,22,108,30,06,13,210,23,07,13,177,17*79



























$GPGSV,3,2,11,11,17,053,20,17,53,286,37,19,31,268,27,22,25,082,21*7F



























$GPGSV,3,3,11,28,74,345,36,30,36,201,31,13,01,262,*45










































$GLGSV,2,1,08,78,40,158,37,82,36,244,16,80,22,326,22,79,78,289,36*6F



























$GLGSV,2,2,08,65,04,063,18,88,28,036,32,81,70,331,38,72,02,023,15*6E



























$GAGSV,1,1,0,*74















































































$PQGSV,1,1,0,*73















































































$GBGSV,1,1,0,*77















































































$GNGSA,A,3,01,03,06,07,11,17,19,22,28,30,,,1.0,0.7,0.7,1*34




































$GNGSA,A,3,65,78,80,81,82,88,,,,,,,1.0,0.7,0.7,2*34












































$GNVTG,,T,,M,0.0,N,0.0,K,A*3D


































































$GNGGA,153043.00,0534.074246,N,02540.704513,W,1,12,0.7,57.0,M,-42.0,M,,*7B





















$GNRMC,153043.00,A,0534.074246,N,02540.704513,W,0.0,,280620,8.4,W,A*01

























$GPGSV,3,1,11,01,43,049,37,03,22,108,29,06,13,210,21,07,13,177,17*73



























$GPGSV,3,2,11,11,17,053,20,17,53,286,38,19,31,268,29,22,25,082,24*7B



























$GPGSV,3,3,11,28,74,345,34,30,36,201,31,13,01,262,*47










































$GLGSV,2,1,08,78,40,158,37,82,36,244,23,80,22,326,22,79,78,289,36*69



























$GLGSV,2,2,08,65,04,063,18,88,28,036,32,81,70,331,37,72,02,023,14*60



























$GAGSV,1,1,0,*74















































































$PQGSV,1,1,0,*73















































































$GBGSV,1,1,0,*77















































































$GNGSA,A,3,01,03,06,07,11,17,19,22,28,30,,,1.0,0.7,0.7,1*34




































$GNGSA,A,3,65,78,80,81,82,88,,,,,,,1.0,0.7,0.7,2*34












































$GNVTG,,T,,M,0.0,N,0.0,K,A*3D


































































$GNGGA,153044.00,0534.074142,N,02540.704579,W,1,12,0.7,57.0,M,-42.0,M,,*77





















$GNRMC,153044.00,A,0534.074142,N,02540.704579,W,0.0,,280620,8.4,W,A*0D

























$GPGSV,3,1,11,01,43,049,37,03,22,108,29,06,13,210,22,07,13,177,17*70



























$GPGSV,3,2,11,11,17,053,20,17,53,286,37,19,31,268,33,22,25,082,23*78



























$GPGSV,3,3,11,28,74,345,34,30,36,201,32,13,01,262,*44










































$GLGSV,2,1,08,78,40,158,37,82,36,244,20,80,22,326,23,79,78,289,36*6B



























$GLGSV,2,2,08,65,04,063,15,88,28,036,32,81,70,331,37,72,02,023,14*6D



























$GAGSV,1,1,0,*74















































































$PQGSV,1,1,0,*73















































































$GBGSV,1,1,0,*77















































































$GNGSA,A,3,01,03,06,07,11,17,19,22,28,30,,,1.0,0.7,0.7,1*34




































$GNGSA,A,3,65,78,80,81,82,88,,,,,,,1.0,0.7,0.7,2*34












































$GNVTG,,T,,M,0.0,N,0.0,K,A*3D


































































$GNGGA,153045.00,0534.074081,N,02540.704592,W,1,12,0.7,57.0,M,-42.0,M,,*7D





















$GNRMC,153045.00,A,0534.074081,N,02540.704592,W,0.0,,280620,8.4,W,A*07

























$GPGSV,3,1,11,01,43,049,37,03,22,108,29,06,13,210,21,07,13,177,17*73



























$GPGSV,3,2,11,11,17,053,19,17,53,286,37,19,31,268,33,22,25,082,23*72



























$GPGSV,3,3,11,28,74,345,34,30,36,201,31,13,01,262,*47










































$GLGSV,2,1,08,78,40,158,37,82,36,244,21,80,22,326,22,79,78,289,36*6B



























$GLGSV,2,2,08,65,04,063,15,88,28,036,32,81,70,331,37,72,02,023,13*6A



























$GAGSV,1,1,0,*74















































































$PQGSV,1,1,0,*73















































































$GBGSV,1,1,0,*77















































































$GNGSA,A,3,01,03,06,07,11,17,19,22,28,30,,,1.0,0.7,0.7,1*34




































$GNGSA,A,3,65,78,80,81,82,88,,,,,,,1.0,0.7,0.7,2*34












































$GNVTG,,T,,M,0.0,N,0.0,K,A*3D


































































$GNGGA,153046.00,0534.074038,N,02540.704594,W,1,12,0.7,57.0,M,-42.0,M,,*7A





















$GNRMC,153046.00,A,0534.074038,N,02540.704594,W,0.0,,280620,8.4,W,A*00

























$GPGSV,3,1,11,01,43,049,37,03,22,108,29,06,13,210,20,07,13,177,14*71



























$GPGSV,3,2,11,11,17,053,19,17,53,286,37,19,31,268,33,22,25,082,23*72



























$GPGSV,3,3,11,28,74,345,34,30,36,201,31,13,01,262,*47










































$GLGSV,2,1,08,78,40,158,37,82,36,244,23,80,22,326,21,79,78,289,36*6A



























$GLGSV,2,2,08,65,04,063,16,88,28,036,31,81,70,331,37,72,02,023,13*6A



























$GAGSV,1,1,0,*74















































































$PQGSV,1,1,0,*73















































































$GBGSV,1,1,0,*77















































































$GNGSA,A,3,01,03,06,07,11,17,19,22,28,30,,,1.0,0.7,0.7,1*34




































$GNGSA,A,3,65,78,80,81,82,88,,,,,,,1.0,0.7,0.7,2*34












































$GNVTG,,T,,M,0.0,N,0.0,K,A*3D


































































$GNGGA,153047.00,0534.074017,N,02540.704565,W,1,12,0.7,57.0,M,-42.0,M,,*78





















$GNRMC,153047.00,A,0534.074017,N,02540.704565,W,0.0,,280620,8.4,W,A*02

























$GPGSV,3,1,11,01,43,049,36,03,22,108,30,06,13,210,21,07,13,177,14*79



























$GPGSV,3,2,11,11,17,053,20,17,53,286,37,19,31,268,33,22,25,082,23*78



























$GPGSV,3,3,11,28,74,345,34,30,36,201,31,13,01,262,*47










































$GLGSV,2,1,08,78,40,158,37,82,36,244,23,80,22,326,21,79,78,289,36*6A



























$GLGSV,2,2,08,65,04,063,16,88,28,036,32,81,70,331,37,72,02,023,13*69



























$GAGSV,1,1,0,*74















































































$PQGSV,1,1,0,*73















































































$GBGSV,1,1,0,*77















































































$GNGSA,A,3,01,03,06,07,11,17,19,22,28,30,,,1.1,0.7,0.8,1*3A




































$GNGSA,A,3,65,78,80,81,82,88,,,,,,,1.1,0.7,0.8,2*3A












































$GNVTG,,T,,M,0.0,N,0.0,K,A*3D


































































$GNGGA,153048.00,0534.074003,N,02540.704475,W,1,12,0.7,57.0,M,-42.0,M,,*72





















$GNRMC,153048.00,A,0534.074003,N,02540.704475,W,0.0,,280620,8.4,W,A*08

























$GPGSV,3,1,11,01,43,049,36,03,22,108,30,06,13,210,19,07,13,177,14*72



























$GPGSV,3,2,11,11,17,053,22,17,53,286,37,19,31,268,32,22,25,082,23*7B



























$GPGSV,3,3,11,28,74,345,34,30,36,201,31,13,01,262,*47










































$GLGSV,2,1,08,78,40,158,36,82,36,244,22,80,22,326,21,79,78,289,36*6A



























$GLGSV,2,2,08,65,04,063,16,88,28,036,32,81,70,331,37,72,02,023,13*69



























$GAGSV,1,1,0,*74















































































$PQGSV,1,1,0,*73















































































$GBGSV,1,1,0,*77















































































$GNGSA,A,3,01,03,06,11,17,19,22,28,30,,,,1.1,0.7,0.8,1*3D






































$GNGSA,A,3,78,80,81,82,88,,,,,,,,1.1,0.7,0.8,2*39














































$GNVTG,,T,,M,0.0,N,0.0,K,A*3D


































































$GNGGA,153049.00,0534.074001,N,02540.704448,W,1,12,0.7,57.0,M,-42.0,M,,*7F





















$GNRMC,153049.00,A,0534.074001,N,02540.704448,W,0.0,,280620,8.4,W,A*05

























$GPGSV,3,1,11,01,43,049,35,03,22,108,29,06,13,210,19,07,13,177,14*79



























$GPGSV,3,2,11,11,17,053,21,17,53,286,37,19,31,268,32,22,25,082,23*78



























$GPGSV,3,3,11,28,74,345,34,30,36,201,30,13,01,262,*46










































$GLGSV,2,1,08,78,40,158,35,82,36,244,22,80,22,326,21,79,78,289,36*69



























$GLGSV,2,2,08,65,04,063,16,88,28,036,32,81,70,331,36,72,02,023,13*68



























$GAGSV,1,1,0,*74















































































$PQGSV,1,1,0,*73















































































$GBGSV,1,1,0,*77















































































$GNGSA,A,3,01,03,06,11,17,19,22,28,30,,,,1.1,0.7,0.8,1*3D






































$GNGSA,A,3,78,80,81,82,88,,,,,,,,1.1,0.7,0.8,2*39














































$GNVTG,,T,,M,0.0,N,0.0,K,A*3D


































































$GNGGA,153050.00,0534.073995,N,02540.704447,W,1,12,0.7,56.0,M,-42.0,M,,*7A





















$GNRMC,153050.00,A,0534.073995,N,02540.704447,W,0.0,,280620,8.4,W,A*01

























$GPGSV,3,1,11,01,43,049,35,03,22,108,31,06,13,210,19,07,13,177,18*7C



























$GPGSV,3,2,11,11,17,053,19,17,53,286,37,19,31,268,32,22,25,082,22*72



























$GPGSV,3,3,11,28,74,345,34,30,36,201,30,13,01,262,*46










































$GLGSV,2,1,08,78,40,158,36,82,36,244,24,80,22,326,20,79,78,289,36*6D



























$GLGSV,2,2,08,65,04,063,16,88,28,036,32,81,70,331,36,72,02,023,13*68



























$GAGSV,1,1,0,*74















































































$PQGSV,1,1,0,*73















































































$GBGSV,1,1,0,*77















































































$GNGSA,A,3,01,03,06,11,17,19,22,28,30,,,,1.1,0.7,0.8,1*3D






































$GNGSA,A,3,78,80,81,82,88,,,,,,,,1.1,0.7,0.8,2*39














































$GNVTG,,T,,M,0.0,N,0.0,K,A*3D


































































$GNGGA,153051.00,0534.073994,N,02540.704429,W,1,12,0.7,56.0,M,-42.0,M,,*72





















$GNRMC,153051.00,A,0534.073994,N,02540.704429,W,0.0,,280620,8.4,W,A*09

























$GPGSV,3,1,11,01,43,049,36,03,22,108,31,06,13,210,19,07,13,177,19*7E



























$GPGSV,3,2,11,11,17,053,19,17,53,286,37,19,31,268,31,22,25,082,22*71



























$GPGSV,3,3,11,28,74,345,34,30,36,201,30,13,01,262,*46










































$GLGSV,2,1,08,78,40,158,36,82,36,244,22,80,22,326,19,79,78,289,35*62



























$GLGSV,2,2,08,65,04,063,16,88,28,036,32,81,70,331,36,72,02,023,13*68



























$GAGSV,1,1,0,*74















































































$PQGSV,1,1,0,*73















































































$GBGSV,1,1,0,*77















































































$GNGSA,A,3,01,03,06,11,17,19,22,28,30,,,,1.1,0.7,0.8,1*3D






































$GNGSA,A,3,78,80,81,82,88,,,,,,,,1.1,0.7,0.8,2*39














































$GNVTG,,T,,M,0.0,N,0.0,K,A*3D


































































$GNGGA,153052.00,0534.074020,N,02540.704388,W,1,12,0.7,56.0,M,-42.0,M,,*7C





















$GNRMC,153052.00,A,0534.074020,N,02540.704388,W,0.0,,280620,8.4,W,A*07

























$GPGSV,3,1,11,01,43,049,36,03,22,108,31,06,13,210,15,07,13,177,17*7C



























$GPGSV,3,2,11,11,17,053,17,17,53,286,37,19,31,268,32,22,25,082,20*7E



























$GPGSV,3,3,11,28,74,345,34,30,36,201,31,13,01,262,*47










































$GLGSV,2,1,08,78,40,158,36,82,36,244,21,80,22,326,21,79,78,289,35*6A



























$GLGSV,2,2,08,65,04,063,16,88,28,036,32,81,70,331,36,72,02,023,13*68



























$GAGSV,1,1,0,*74















































































$PQGSV,1,1,0,*73















































































$GBGSV,1,1,0,*77















































































$GNGSA,A,3,01,03,06,11,17,19,22,28,30,,,,1.1,0.7,0.8,1*3D






































$GNGSA,A,3,78,80,81,82,88,,,,,,,,1.1,0.7,0.8,2*39














































$GNVTG,,T,,M,0.0,N,0.0,K,A*3D


































































$GNGGA,153053.00,0534.074050,N,02540.704344,W,1,12,0.7,56.0,M,-42.0,M,,*7A





















$GNRMC,153053.00,A,0534.074050,N,02540.704344,W,0.0,,280620,8.4,W,A*01

























$GPGSV,3,1,11,01,43,049,36,03,22,108,31,06,13,210,15,07,13,177,20*78



























$GPGSV,3,2,11,11,17,053,17,17,53,286,37,19,31,268,32,22,25,082,21*7F



























$GPGSV,3,3,11,28,74,345,34,30,36,201,31,13,01,262,*47










































$GLGSV,2,1,08,78,40,158,37,82,36,244,23,80,22,326,21,79,78,289,36*6A



























$GLGSV,2,2,08,65,04,063,16,88,28,036,32,81,70,331,37,72,02,023,13*69



























$GAGSV,1,1,0,*74















































































$PQGSV,1,1,0,*73















































































$GBGSV,1,1,0,*77















































































$GNGSA,A,3,01,03,06,11,17,19,22,28,30,,,,1.1,0.7,0.8,1*3D






































$GNGSA,A,3,78,80,81,82,88,,,,,,,,1.1,0.7,0.8,2*39














































$GNVTG,,T,,M,0.0,N,0.0,K,A*3D


































































$GNGGA,153054.00,0534.074081,N,02540.704359,W,1,12,0.7,56.0,M,-42.0,M,,*7D





















$GNRMC,153054.00,A,0534.074081,N,02540.704359,W,0.0,,280620,8.4,W,A*06

























$GPGSV,3,1,11,01,43,049,36,03,22,108,30,06,13,210,16,07,13,177,19*70



























$GPGSV,3,2,11,11,17,053,18,17,53,286,37,19,31,268,32,22,25,082,21*70



























$GPGSV,3,3,11,28,74,345,34,30,36,201,30,13,01,262,*46










































$GLGSV,2,1,08,78,40,158,37,82,36,244,24,80,22,326,21,79,78,289,36*6D



























$GLGSV,2,2,08,65,04,063,16,88,28,036,32,81,70,331,37,72,02,023,13*69



























$GAGSV,1,1,0,*74















































































$PQGSV,1,1,0,*73















































































$GBGSV,1,1,0,*77















































































$GNGSA,A,3,01,03,07,11,17,19,22,28,30,,,,1.1,0.7,0.8,1*3C






































$GNGSA,A,3,78,80,81,82,88,,,,,,,,1.1,0.7,0.8,2*39














































$GNVTG,,T,,M,0.0,N,0.0,K,A*3D


































































$GNGGA,153055.00,0534.074136,N,02540.704381,W,1,12,0.7,56.0,M,-42.0,M,,*74





















$GNRMC,153055.00,A,0534.074136,N,02540.704381,W,0.0,,280620,8.4,W,A*0F

























$GPGSV,3,1,11,01,43,049,37,03,22,108,30,06,13,210,20,07,13,177,19*74



























$GPGSV,3,2,11,11,17,053,18,17,53,286,37,19,31,268,33,28,74,345,34*73



























$GPGSV,3,3,11,30,36,201,31,13,01,262,,22,25,082,*46












































$GLGSV,2,1,08,78,40,158,37,82,36,244,25,80,22,326,22,79,78,289,36*6F



























$GLGSV,2,2,08,65,04,063,16,88,28,036,32,81,70,331,37,72,02,023,13*69



























$GAGSV,1,1,0,*74















































































$PQGSV,1,1,0,*73















































































$GBGSV,1,1,0,*77















































































$GNGSA,A,3,01,03,07,11,17,19,22,28,30,,,,1.1,0.7,0.8,1*3C






































$GNGSA,A,3,78,80,81,82,88,,,,,,,,1.1,0.7,0.8,2*39














































$GNVTG,,T,,M,0.0,N,0.0,K,A*3D


































































$GNGGA,153056.00,0534.074194,N,02540.704379,W,1,12,0.7,56.0,M,-42.0,M,,*78





















$GNRMC,153056.00,A,0534.074194,N,02540.704379,W,0.0,,280620,8.4,W,A*03

























$GPGSV,3,1,11,01,43,049,37,03,22,108,30,06,13,210,22,07,13,177,17*78



























$GPGSV,3,2,11,11,17,053,19,17,53,286,37,19,31,268,32,22,25,082,24*74



























$GPGSV,3,3,11,28,74,345,34,30,36,201,31,13,01,262,*47










































$GLGSV,2,1,08,78,40,158,37,82,36,244,23,80,22,326,22,79,78,289,36*69



























$GLGSV,2,2,08,65,04,063,16,88,28,036,32,81,70,331,37,72,02,023,13*69



























$GAGSV,1,1,0,*74















































































$PQGSV,1,1,0,*73















































































$GBGSV,1,1,0,*77















































































$GNGSA,A,3,01,03,07,17,19,22,28,30,,,,,1.1,0.7,0.8,1*3C








































$GNGSA,A,3,78,80,81,82,88,,,,,,,,1.1,0.7,0.8,2*39














































$GNVTG,,T,,M,0.0,N,0.0,K,A*3D


































































$GNGGA,153057.00,0534.074238,N,02540.704377,W,1,12,0.7,56.0,M,-42.0,M,,*72





















$GNRMC,153057.00,A,0534.074238,N,02540.704377,W,0.0,,280620,8.4,W,A*09

























$GPGSV,3,1,11,01,43,049,37,03,22,108,30,06,13,210,21,07,13,177,17*7B



























$GPGSV,3,2,11,11,17,053,20,17,53,286,38,19,31,268,32,22,25,082,25*70



























$GPGSV,3,3,11,28,74,345,35,30,36,201,31,13,01,262,*46










































$GLGSV,2,1,08,78,40,158,37,82,36,244,23,80,22,326,23,79,78,289,36*68



























$GLGSV,2,2,08,65,04,063,16,88,28,036,33,81,70,331,37,72,02,023,13*68



























$GAGSV,1,1,0,*74















































































$PQGSV,1,1,0,*73















































































$GBGSV,1,1,0,*77















































































$GNGSA,A,3,01,03,06,07,17,19,22,28,30,,,,1.1,0.7,0.8,1*3A






































$GNGSA,A,3,78,80,81,82,88,,,,,,,,1.1,0.7,0.8,2*39














































$GNVTG,,T,,M,0.0,N,0.0,K,A*3D


































































$GNGGA,153058.00,0534.074233,N,02540.704431,W,1,12,0.7,56.0,M,-42.0,M,,*73





















$GNRMC,153058.00,A,0534.074233,N,02540.704431,W,0.0,,280620,8.4,W,A*08

























$GPGSV,3,1,11,01,43,049,37,03,22,108,30,06,13,210,18,07,13,177,20*75



























$GPGSV,3,2,11,11,17,053,20,17,53,286,37,19,31,268,33,22,25,082,24*7F



























$GPGSV,3,3,11,28,74,345,34,30,36,201,30,13,01,262,*46










































$GLGSV,2,1,08,78,40,158,37,82,36,244,22,80,22,326,22,79,78,289,36*68



























$GLGSV,2,2,08,65,04,063,10,88,28,036,33,81,70,331,36,72,02,023,13*6F



























$GAGSV,1,1,0,*74















































































$PQGSV,1,1,0,*73















































































$GBGSV,1,1,0,*77















































































$GNGSA,A,3,01,03,06,07,17,19,22,28,30,,,,1.0,0.7,0.8,1*3B






































$GNGSA,A,3,78,80,81,82,88,,,,,,,,1.0,0.7,0.8,2*38














































$GNVTG,,T,,M,0.0,N,0.0,K,A*3D


































































$GNGGA,153059.00,0534.074251,N,02540.704445,W,1,12,0.7,56.0,M,-42.0,M,,*75





















$GNRMC,153059.00,A,0534.074251,N,02540.704445,W,0.0,,280620,8.4,W,A*0E

























$GPGSV,3,1,11,01,43,049,37,03,22,108,30,06,13,210,18,07,13,177,20*75



























$GPGSV,3,2,11,11,17,053,19,17,53,286,37,19,31,268,32,22,25,082,23*73



























$GPGSV,3,3,11,28,74,345,34,30,36,201,30,13,01,262,*46










































$GLGSV,2,1,08,78,40,158,37,82,36,244,23,80,22,326,21,79,78,289,36*6A



























$GLGSV,2,2,08,65,04,063,10,88,28,036,32,81,70,331,37,72,02,023,13*6F



























$GAGSV,1,1,0,*74















































































$PQGSV,1,1,0,*73















































































$GBGSV,1,1,0,*77















































































$GNGSA,A,3,01,03,06,07,11,17,19,22,28,30,,,1.0,0.7,0.8,1*3B




































$GNGSA,A,3,78,80,81,82,88,,,,,,,,1.0,0.7,0.8,2*38














































$GNVTG,,T,,M,0.0,N,0.0,K,A*3D


































































$GNGGA,153100.00,0534.074329,N,02540.704472,W,1,12,0.7,56.0,M,-42.0,M,,*72





















$GNRMC,153100.00,A,0534.074329,N,02540.704472,W,0.0,,280620,8.4,W,A*09

























$GPGSV,3,1,11,01,43,049,37,03,22,108,30,06,13,210,16,07,13,177,21*7A



























$GPGSV,3,2,11,11,17,053,21,17,53,286,37,19,31,268,32,22,25,082,26*7D



























$GPGSV,3,3,11,28,74,345,34,30,36,201,31,13,01,262,*47










































$GLGSV,2,1,08,78,40,158,37,82,36,244,24,80,22,326,21,79,78,289,36*6D



























$GLGSV,2,2,08,65,04,063,10,88,28,036,32,81,70,331,37,72,02,023,13*6F



























$GAGSV,1,1,0,*74















































































$PQGSV,1,1,0,*73















































































$GBGSV,1,1,0,*77















































































$GNGSA,A,3,01,03,06,07,11,17,19,22,28,30,,,1.0,0.7,0.8,1*3B




































$GNGSA,A,3,78,80,81,82,88,,,,,,,,1.0,0.7,0.8,2*38














































$GNVTG,,T,,M,0.0,N,0.0,K,A*3D


































































$GNGGA,153101.00,0534.074436,N,02540.704514,W,1,12,0.7,56.0,M,-42.0,M,,*7B





















$GNRMC,153101.00,A,0534.074436,N,02540.704514,W,0.0,,280620,8.4,W,A*00

























$GPGSV,3,1,11,01,43,049,36,03,22,108,30,06,13,210,20,07,13,177,22*7D



























$GPGSV,3,2,11,11,17,053,19,17,53,286,37,19,31,268,32,22,25,082,26*76



























$GPGSV,3,3,11,28,74,345,34,30,36,201,31,13,01,262,*47










































$GLGSV,2,1,08,78,40,158,37,82,36,244,24,80,22,326,21,79,78,289,36*6D



























$GLGSV,2,2,08,65,04,063,10,88,28,036,32,81,70,331,37,72,02,023,13*6F



























$GAGSV,1,1,0,*74















































































$PQGSV,1,1,0,*73















































































$GBGSV,1,1,0,*77















































































$GNGSA,A,3,01,03,06,07,11,17,19,22,28,30,,,1.0,0.7,0.8,1*3B




































$GNGSA,A,3,78,80,81,82,88,,,,,,,,1.0,0.7,0.8,2*38














































$GNVTG,,T,,M,0.0,N,0.0,K,A*3D


































































$GNGGA,153102.00,0534.074523,N,02540.704570,W,1,12,0.7,56.0,M,-42.0,M,,*7F





















$GNRMC,153102.00,A,0534.074523,N,02540.704570,W,0.0,,280620,8.4,W,A*04

























$GPGSV,3,1,11,01,43,049,36,03,22,108,30,06,13,210,20,07,13,177,22*7D



























$GPGSV,3,2,11,11,17,053,19,17,53,286,38,19,31,268,32,22,25,082,27*78



























$GPGSV,3,3,11,28,74,345,34,30,36,201,30,13,01,262,*46










































$GLGSV,2,1,08,78,40,158,37,82,36,244,23,80,22,326,23,79,78,289,36*68



























$GLGSV,2,2,08,65,04,063,10,88,28,036,32,81,70,333,37,72,02,023,13*6D



























$GAGSV,1,1,0,*74















































































$PQGSV,1,1,0,*73















































































$GBGSV,1,1,0,*77















































































$GNGSA,A,3,01,03,06,07,11,17,19,22,28,30,,,1.0,0.7,0.8,1*3B




































$GNGSA,A,3,78,79,80,81,82,88,,,,,,,1.0,0.7,0.8,2*36












































$GNVTG,,T,,M,0.0,N,0.0,K,A*3D


































































$GNGGA,153103.00,0534.074640,N,02540.704593,W,1,12,0.7,56.0,M,-42.0,M,,*75





















$GNRMC,153103.00,A,0534.074640,N,02540.704593,W,0.0,,280620,8.4,W,A*0E

























$GPGSV,3,1,11,01,43,049,36,03,22,108,30,06,13,210,20,07,13,177,21*7E



























$GPGSV,3,2,11,11,17,053,21,17,53,286,38,19,31,268,32,22,25,082,27*73



























$GPGSV,3,3,11,28,74,345,34,30,36,201,28,13,01,262,*4F










































$GLGSV,2,1,08,78,40,158,37,82,36,244,24,80,22,326,23,79,78,289,36*6F



























$GLGSV,2,2,08,65,04,063,10,88,28,036,33,81,70,333,37,72,02,023,13*6C



























$GAGSV,1,1,0,*74















































































$PQGSV,1,1,0,*73















































































$GBGSV,1,1,0,*77















































































$GNGSA,A,3,01,03,06,07,11,17,19,22,28,30,,,1.1,0.7,0.8,1*3A




































$GNGSA,A,3,78,79,80,81,82,88,,,,,,,1.1,0.7,0.8,2*37












































$GNVTG,,T,,M,0.0,N,0.0,K,A*3D


































































$GNGGA,153104.00,0534.074701,N,02540.704657,W,1,12,0.7,56.0,M,-42.0,M,,*7D





















$GNRMC,153104.00,A,0534.074701,N,02540.704657,W,0.0,,280620,8.4,W,A*06

























$GPGSV,3,1,11,01,43,049,36,03,22,108,31,06,13,210,20,07,13,177,26*78



























$GPGSV,3,2,11,11,17,053,23,17,53,286,37,19,31,268,33,22,25,082,25*7D



























$GPGSV,3,3,11,28,74,345,34,30,36,201,30,13,01,262,*46










































$GLGSV,2,1,08,78,40,158,34,82,36,244,25,80,22,326,22,79,78,289,36*6C



























$GLGSV,2,2,08,65,04,063,10,88,27,036,33,81,70,333,37,72,02,023,13*63



























$GAGSV,1,1,0,*74















































































$PQGSV,1,1,0,*73















































































$GBGSV,1,1,0,*77















































































$GNGSA,A,3,01,03,07,11,17,19,22,28,30,,,,1.1,0.7,0.8,1*3C






































$GNGSA,A,3,78,79,80,81,82,88,,,,,,,1.1,0.7,0.8,2*37












































$GNVTG,,T,,M,0.0,N,0.0,K,A*3D


































































$GNGGA,153105.00,0534.074741,N,02540.704710,W,1,12,0.7,56.0,M,-42.0,M,,*7A





















$GNRMC,153105.00,A,0534.074741,N,02540.704710,W,0.0,,280620,8.4,W,A*01

























$GPGSV,3,1,11,01,43,049,35,03,22,108,33,06,13,210,24,07,13,177,30*7A



























$GPGSV,3,2,11,11,17,053,27,17,53,286,37,19,31,268,32,22,25,082,23*7E



























$GPGSV,3,3,11,28,74,345,31,30,36,201,31,13,01,262,*42










































$GLGSV,2,1,08,78,40,158,37,82,36,244,24,80,22,326,22,79,78,289,31*69



























$GLGSV,2,2,08,65,04,063,10,88,27,036,31,81,70,333,37,72,02,023,13*61



























$GAGSV,1,1,0,*74















































































$PQGSV,1,1,0,*73















































































$GBGSV,1,1,0,*77















































































$GNGSA,A,3,01,03,07,11,17,19,22,28,30,,,,1.0,0.7,0.8,1*3D






































$GNGSA,A,3,78,79,80,81,82,88,,,,,,,1.0,0.7,0.8,2*36












































$GNVTG,,T,,M,0.0,N,0.0,K,A*3D


































































$GNGGA,153106.00,0534.074895,N,02540.704757,W,1,12,0.7,56.0,M,-42.0,M,,*7C





















$GNRMC,153106.00,A,0534.074895,N,02540.704757,W,0.0,,280620,8.4,W,A*07

























$GPGSV,3,1,11,01,43,049,34,03,22,108,33,06,13,210,21,07,13,177,31*7F



























$GPGSV,3,2,11,11,17,053,25,17,53,286,37,19,31,268,31,22,25,082,23*7F



























$GPGSV,3,3,11,28,74,345,27,30,36,201,32,13,01,262,*46










































$GLGSV,2,1,08,78,40,158,39,82,36,244,20,80,22,326,24,79,78,289,32*66



























$GLGSV,2,2,08,65,04,063,10,88,27,036,31,81,70,333,35,72,02,023,13*63



























$GAGSV,1,1,0,*74















































































$PQGSV,1,1,0,*73















































































$GBGSV,1,1,0,*77















































































$GNGSA,A,3,01,03,06,07,11,17,19,22,28,30,,,1.0,0.7,0.8,1*3B




































$GNGSA,A,3,78,79,80,81,82,88,,,,,,,1.0,0.7,0.8,2*36












































$GNVTG,,T,,M,0.0,N,0.0,K,A*3D


































































$GNGGA,153107.00,0534.075018,N,02540.704871,W,1,12,0.7,56.0,M,-42.0,M,,*7A





















$GNRMC,153107.00,A,0534.075018,N,02540.704871,W,0.0,,280620,8.4,W,A*01

























$GPGSV,3,1,11,01,43,049,33,03,22,108,32,06,13,210,17,07,13,177,31*7C



























$GPGSV,3,2,11,11,17,053,24,17,53,286,37,19,31,268,30,22,25,082,16*79



























$GPGSV,3,3,11,28,74,345,26,30,36,201,31,13,01,262,*44










































$GLGSV,2,1,07,78,40,158,39,82,36,244,19,80,22,326,22,79,78,289,32*65



























$GLGSV,2,2,07,65,04,063,10,88,27,036,32,81,70,333,33*5D








































$GAGSV,1,1,0,*74















































































$PQGSV,1,1,0,*73















































































$GBGSV,1,1,0,*77















































































$GNGSA,A,3,01,03,06,07,11,17,19,22,28,30,,,1.0,0.7,0.8,1*3B




































$GNGSA,A,3,78,79,80,81,82,88,,,,,,,1.0,0.7,0.8,2*36












































$GNVTG,,T,,M,0.0,N,0.0,K,A*3D


































































$GNGGA,153108.00,0534.075104,N,02540.704910,W,1,12,0.7,55.0,M,-42.0,M,,*7C





















$GNRMC,153108.00,A,0534.075104,N,02540.704910,W,0.0,,280620,8.4,W,A*04

























$GPGSV,3,1,11,01,43,049,33,03,22,108,30,06,13,210,19,07,13,177,26*76



























$GPGSV,3,2,11,11,17,053,23,17,53,286,35,19,31,268,29,22,25,082,16*74



























$GPGSV,3,3,11,28,74,345,31,30,36,201,29,13,01,262,*4B










































$GLGSV,2,1,08,78,40,158,36,82,36,244,19,80,22,326,20,79,78,289,34*61



























$GLGSV,2,2,08,65,04,063,10,88,27,036,30,81,70,333,34,72,02,023,*61





























$GAGSV,1,1,0,*74















































































$PQGSV,1,1,0,*73















































































$GBGSV,1,1,0,*77















































































$GNGSA,A,3,01,03,06,07,11,17,19,22,28,30,,,1.0,0.7,0.8,1*3B




































$GNGSA,A,3,78,79,80,81,82,88,,,,,,,1.0,0.7,0.8,2*36












































$GNVTG,,T,,M,0.0,N,0.0,K,A*3D


































































$GNGGA,153109.00,0534.075279,N,02540.704907,W,1,12,0.7,55.0,M,-42.0,M,,*72





















$GNRMC,153109.00,A,0534.075279,N,02540.704907,W,0.0,,280620,8.4,W,A*0A

























$GPGSV,3,1,11,01,43,049,34,03,22,108,28,06,13,210,19,07,13,177,19*74



























$GPGSV,3,2,11,11,17,053,22,17,53,286,35,19,31,268,30,22,25,082,22*7A



























$GPGSV,3,3,11,28,74,345,32,30,36,201,28,13,01,262,*49










































$GLGSV,2,1,08,78,40,158,36,82,36,244,19,80,22,326,20,79,78,289,35*60



























$GLGSV,2,2,08,65,04,063,10,88,27,036,31,81,70,333,36,72,02,023,*62





























$GAGSV,1,1,0,*74















































































$PQGSV,1,1,0,*73















































































$GBGSV,1,1,0,*77















































































$GNGSA,A,3,01,03,06,07,11,17,19,22,28,30,,,1.0,0.7,0.8,1*3B




































$GNGSA,A,3,78,79,80,81,82,88,,,,,,,1.0,0.7,0.8,2*36












































$GNVTG,,T,,M,0.0,N,0.0,K,A*3D


































































$GNGGA,153110.00,0534.075346,N,02540.704919,W,1,12,0.7,55.0,M,-42.0,M,,*78





















$GNRMC,153110.00,A,0534.075346,N,02540.704919,W,0.0,,280620,8.4,W,A*00

























$GPGSV,3,1,11,01,43,049,35,03,22,108,28,06,13,210,16,07,13,177,24*74



























$GPGSV,3,2,11,11,17,053,19,17,53,286,36,19,31,268,29,22,25,082,22*79



























$GPGSV,3,3,11,28,74,345,33,30,36,201,29,13,01,262,*49










































$GLGSV,2,1,08,78,40,158,34,82,36,244,19,80,22,326,21,79,78,289,36*60



























$GLGSV,2,2,08,65,04,063,09,88,27,036,30,81,70,333,36,72,02,023,*6B





























$GAGSV,1,1,0,*74















































































$PQGSV,1,1,0,*73















































































$GBGSV,1,1,0,*77















































































$GNGSA,A,3,01,03,06,07,11,17,19,22,28,30,,,1.0,0.7,0.8,1*3B




































$GNGSA,A,3,78,79,80,81,82,88,,,,,,,1.0,0.7,0.8,2*36












































$GNVTG,,T,,M,0.0,N,0.0,K,A*3D


































































$GNGGA,153111.00,0534.075411,N,02540.704937,W,1,12,0.7,55.0,M,-42.0,M,,*70





















$GNRMC,153111.00,A,0534.075411,N,02540.704937,W,0.0,,280620,8.4,W,A*08

























$GPGSV,3,1,11,01,43,049,34,03,22,108,29,06,13,210,17,07,13,177,21*70



























$GPGSV,3,2,11,11,17,053,20,17,53,286,36,19,31,268,30,22,25,082,23*7A



























$GPGSV,3,3,11,28,74,345,32,30,36,201,28,13,01,262,*49










































$GLGSV,2,1,08,78,40,158,34,82,36,244,19,80,22,326,20,79,78,289,35*62



























$GLGSV,2,2,08,65,04,063,09,88,27,036,31,81,70,333,35,72,02,023,*69





























$GAGSV,1,1,0,*74















































































$PQGSV,1,1,0,*73















































































$GBGSV,1,1,0,*77















































































$GNGSA,A,3,01,03,06,07,11,17,19,22,28,30,,,1.0,0.7,0.8,1*3B




































$GNGSA,A,3,78,79,80,81,82,88,,,,,,,1.0,0.7,0.8,2*36












































$GNVTG,,T,,M,0.0,N,0.0,K,A*3D


































































$GNGGA,153112.00,0534.075473,N,02540.705048,W,1,12,0.7,55.0,M,-42.0,M,,*77





















$GNRMC,153112.00,A,0534.075473,N,02540.705048,W,0.0,,280620,8.4,W,A*0F

























$GPGSV,3,1,11,01,43,049,35,03,22,108,28,06,13,210,17,07,13,177,19*7B



























$GPGSV,3,2,11,11,17,053,18,17,53,286,36,19,31,268,30,22,25,082,24*76



























$GPGSV,3,3,11,28,74,345,33,30,36,201,27,13,01,262,*47










































$GLGSV,2,1,08,78,40,158,35,82,36,244,19,80,22,326,19,79,78,289,35*69



























$GLGSV,2,2,08,65,04,063,09,88,27,036,31,81,70,333,35,72,02,023,*69





























$GAGSV,1,1,0,*74















































































$PQGSV,1,1,0,*73















































































$GBGSV,1,1,0,*77















































































$GNGSA,A,3,01,03,06,07,11,17,19,22,28,30,,,1.1,0.7,0.8,1*3A




































$GNGSA,A,3,78,79,80,81,88,,,,,,,,1.1,0.7,0.8,2*3D














































$GNVTG,,T,,M,0.0,N,0.0,K,A*3D


































































$GNGGA,153113.00,0534.075446,N,02540.705052,W,1,12,0.7,55.0,M,-42.0,M,,*7B





















$GNRMC,153113.00,A,0534.075446,N,02540.705052,W,0.0,,280620,8.4,W,A*03

























$GPGSV,3,1,11,01,43,049,34,03,22,108,28,06,13,210,17,07,13,177,20*70



























$GPGSV,3,2,11,11,17,053,19,17,53,286,36,19,31,268,30,22,25,082,24*77



























$GPGSV,3,3,11,28,74,345,33,30,36,201,29,13,01,262,*49










































$GLGSV,2,1,08,78,40,158,36,82,36,244,21,80,22,326,19,79,78,289,35*61



























$GLGSV,2,2,08,65,04,063,09,88,27,036,30,81,70,333,35,72,02,023,*68





























$GAGSV,1,1,0,*74















































































$PQGSV,1,1,0,*73















































































$GBGSV,1,1,0,*77















































































$GNGSA,A,3,01,03,07,11,17,19,22,28,30,,,,1.1,0.7,0.8,1*3C






































$GNGSA,A,3,78,79,80,81,88,,,,,,,,1.1,0.7,0.8,2*3D














































$GNVTG,,T,,M,0.0,N,0.0,K,A*3D


































































$GNGGA,153114.00,0534.075421,N,02540.705092,W,1,12,0.7,55.0,M,-42.0,M,,*71





















$GNRMC,153114.00,A,0534.075421,N,02540.705092,W,0.0,,280620,8.4,W,A*09

























$GPGSV,3,1,11,01,43,049,34,03,22,108,28,06,13,210,16,07,13,177,20*71



























$GPGSV,3,2,11,11,17,053,17,17,53,286,36,19,31,268,29,22,25,082,26*73



























$GPGSV,3,3,11,28,74,345,33,30,36,201,28,13,01,262,*48










































$GLGSV,2,1,08,78,40,158,35,82,36,244,21,80,22,326,18,79,78,289,35*63



























$GLGSV,2,2,08,65,04,063,09,88,27,036,30,81,70,333,35,72,02,023,*68





























$GAGSV,1,1,0,*74















































































$PQGSV,1,1,0,*73















































































$GBGSV,1,1,0,*77















































































$GNGSA,A,3,01,03,07,11,17,19,22,28,30,,,,1.1,0.7,0.8,1*3C






































$GNGSA,A,3,78,79,80,81,82,88,,,,,,,1.1,0.7,0.8,2*37












































$GNVTG,,T,,M,0.0,N,0.0,K,A*3D


































































$GNGGA,153115.00,0534.075424,N,02540.705134,W,1,12,0.7,55.0,M,-42.0,M,,*78





















